# 
# Header Description:
# 
# Version: v3.10.5 (24099-google), Manufacturer: Google, Model: Pixel 7 Pro, GNSS HW Year: 2020, Platform: 16, API Level: 36 
# 
# Raw GNSS measurements format:
#   Raw,utcTimeMillis,TimeNanos,LeapSecond,TimeUncertaintyNanos,FullBiasNanos,BiasNanos,BiasUncertaintyNanos,DriftNanosPerSecond,DriftUncertaintyNanosPerSecond,HardwareClockDiscontinuityCount,Svid,TimeOffsetNanos,State,ReceivedSvTimeNanos,ReceivedSvTimeUncertaintyNanos,Cn0DbHz,PseudorangeRateMetersPerSecond,PseudorangeRateUncertaintyMetersPerSecond,AccumulatedDeltaRangeState,AccumulatedDeltaRangeMeters,AccumulatedDeltaRangeUncertaintyMeters,CarrierFrequencyHz,CarrierCycles,CarrierPhase,CarrierPhaseUncertainty,MultipathIndicator,SnrInDb,ConstellationType,AgcDb,BasebandCn0DbHz,FullInterSignalBiasNanos,FullInterSignalBiasUncertaintyNanos,SatelliteInterSignalBiasNanos,SatelliteInterSignalBiasUncertaintyNanos,CodeType,ChipsetElapsedRealtimeNanos
# 
# Location fix format:
#   Fix,Provider,LatitudeDegrees,LongitudeDegrees,AltitudeMeters,SpeedMps,AccuracyMeters,BearingDegrees,UnixTimeMillis,SpeedAccuracyMps,BearingAccuracyDegrees,elapsedRealtimeNanos,VerticalAccuracyMeters,MockLocation
# 
# Navigation message format:
#   Nav,Svid,Type,Status,MessageId,Sub-messageId,Data(Bytes)
# 
# NMEA format (for [NMEA sentence] format see https://en.wikipedia.org/wiki/NMEA_0183):
#   NMEA,[NMEA sentence],(UTC)TimeInMs
# 
# GnssAntennaInfo format (https://developer.android.com/reference/android/location/GnssAntennaInfo):
#   GnssAntennaInfo,CarrierFrequencyMHz,PhaseCenterOffsetXOffsetMm,PhaseCenterOffsetXOffsetUncertaintyMm,PhaseCenterOffsetYOffsetMm,PhaseCenterOffsetYOffsetUncertaintyMm,PhaseCenterOffsetZOffsetMm,PhaseCenterOffsetZOffsetUncertaintyMm,PhaseCenterVariationCorrectionsArray,PhaseCenterVariationCorrectionUncertaintiesArray,PhaseCenterVariationCorrectionsDeltaPhi,PhaseCenterVariationCorrectionsDeltaTheta,SignalGainCorrectionsArray,SignalGainCorrectionUncertaintiesArray,SignalGainCorrectionsDeltaPhi,SignalGainCorrectionsDeltaTheta
# 
# GnssStatus format (https://developer.android.com/reference/android/location/GnssStatus):
#   Status,UnixTimeMillis,SignalCount,SignalIndex,ConstellationType,Svid,CarrierFrequencyHz,Cn0DbHz,AzimuthDegrees,ElevationDegrees,UsedInFix,HasAlmanacData,HasEphemerisData,BasebandCn0DbHz
# Orientation sensor format (https://developer.android.com/reference/android/hardware/SensorEvent#values):
#   OrientationDeg,utcTimeMillis,elapsedRealtimeNanos,yawDeg,rollDeg,pitchDeg
OrientationDeg,1769688663140,519436707623386,91.68293237906948,-16.71587883315634,-1.2972842960435556
OrientationDeg,1769688663147,519436715882399,91.6635209814483,-16.65961685741565,-1.3051817022713827
OrientationDeg,1769688663157,519436724158266,91.6428391686415,-16.608629495261507,-1.3136893432128685
OrientationDeg,1769688663165,519436732437359,91.61833928008866,-16.55879643507709,-1.3332975356595056
OrientationDeg,1769688663173,519436740696272,91.58931780630525,-16.50566951616544,-1.363152505965043
OrientationDeg,1769688663181,519436748974347,91.55693587945024,-16.448453021488245,-1.3923417462699155
OrientationDeg,1769688663190,519436757245534,91.52441051862263,-16.388077564319918,-1.4178292374880528
OrientationDeg,1769688663198,519436765517272,91.49421425230202,-16.327135201450478,-1.439152447746598
OrientationDeg,1769688663206,519436773787455,91.46780874097072,-16.268918084059873,-1.4529098361171788
OrientationDeg,1769688663215,519436782058042,91.446525871517,-16.21623171234969,-1.4587110146000468
OrientationDeg,1769688663223,519436790329029,91.43160873836968,-16.17224870918939,-1.457134628283949
OrientationDeg,1769688663231,519436798589545,91.42560500208924,-16.138997640762476,-1.4518414451206008
OrientationDeg,1769688663238,519436806867408,91.43072081377755,-16.11714274296573,-1.4497725381323214
OrientationDeg,1769688663248,519436815141852,91.44759138102751,-16.106221270482877,-1.45506369358326
OrientationDeg,1769688663256,519436823415950,91.47367587346776,-16.104670817541287,-1.4660332975554178
OrientationDeg,1769688663264,519436831684575,91.50312764916885,-16.108946515961712,-1.479452591562083
OrientationDeg,1769688663272,519436839952092,91.52809882077446,-16.116977110878356,-1.4911220764807556
OrientationDeg,1769688663281,519436848223678,91.54125376511587,-16.126383988912757,-1.4951721652151615
OrientationDeg,1769688663289,519436856498519,91.54014727447031,-16.13704420665985,-1.4942817860238269
OrientationDeg,1769688663297,519436864764673,91.52703331126395,-16.148438669742728,-1.4973357343564688
OrientationDeg,1769688663305,519436873038271,91.50899478166593,-16.15810680251288,-1.5092707428791257
OrientationDeg,1769688663314,519436881311423,91.49361319565503,-16.16336604817379,-1.5252699274013517
OrientationDeg,1769688663322,519436889569032,91.48538964789435,-16.160478585702165,-1.5392598623688303
OrientationDeg,1769688663330,519436897851594,91.4831698364141,-16.146959933787418,-1.5480719803369103
OrientationDeg,1769688663339,519436906118315,91.4811617607981,-16.12308500754364,-1.552274574388878
OrientationDeg,1769688663347,519436914387968,91.47320459041504,-16.090057627812044,-1.5502162328494713
OrientationDeg,1769688663355,519436922666553,91.45640232505684,-16.053285596867987,-1.5484346206931556
OrientationDeg,1769688663363,519436930925830,91.43365096493153,-16.017049735773778,-1.5588969763977343
OrientationDeg,1769688663371,519436939203123,91.41058541610437,-15.983651818279707,-1.5830729645735233
OrientationDeg,1769688663380,519436947473110,91.393899263962,-15.953320655722973,-1.6129945292234682
OrientationDeg,1769688663388,519436955748948,91.38671390495517,-15.926090399049425,-1.6392550057565805
OrientationDeg,1769688663396,519436964008520,91.38739692387219,-15.901472689733406,-1.6575805100214305
OrientationDeg,1769688663405,519436972272252,91.389398169299,-15.880140301408163,-1.6695028186610994
OrientationDeg,1769688663413,519436980559544,91.38671390495517,-15.86228618691775,-1.6742768007258209
OrientationDeg,1769688663421,519436988827334,91.37698088538792,-15.849903053952517,-1.675582540796057
OrientationDeg,1769688663429,519436997101413,91.36174273334962,-15.843952251638143,-1.6813523430974253
OrientationDeg,1769688663438,519437005372551,91.34583522277262,-15.844471346015064,-1.6960753494619167
OrientationDeg,1769688663446,519437013643556,91.33396435399516,-15.849564959588601,-1.7143882605654843
OrientationDeg,1769688663454,519437021916951,91.32811771206565,-15.857820950747854,-1.7329265679116626
OrientationDeg,1769688663463,519437030186158,91.3258979005854,-15.867004140086937,-1.7513204807899185
OrientationDeg,1769688663471,519437038456003,91.32378054194271,-15.875823621852716,-1.770149284619234
OrientationDeg,1769688663479,519437046721099,91.31875352271356,-15.882488178935356,-1.787629873139412
OrientationDeg,1769688663487,519437054997943,91.31014748435933,-15.886528235829418,-1.8024847875322494
OrientationDeg,1769688663496,519437063274341,91.2982902759602,-15.888351896337811,-1.8133492706242125
OrientationDeg,1769688663504,519437071539761,91.28595495431915,-15.88813333028437,-1.8212223443031215
OrientationDeg,1769688663512,519437079810432,91.27413872705506,-15.887658632137056,-1.8288390724447436
OrientationDeg,1769688663521,519437088081459,91.264617443352,-15.887168566064107,-1.8388679245804378
OrientationDeg,1769688663529,519437096341131,91.25759600888523,-15.88685779245687,-1.849794946591989
OrientationDeg,1769688663537,519437104623540,91.25315638592474,-15.887549349110335,-1.8598124862268703
OrientationDeg,1769688663545,519437112893965,91.25021940458163,-15.888824886937835,-1.8696140211292502
OrientationDeg,1769688663554,519437121165267,91.24574563067529,-15.890558047439725,-1.8794778815078066
OrientationDeg,1769688663562,519437129435824,91.2398443472324,-15.892473915501913,-1.890808951897446
OrientationDeg,1769688663570,519437137704288,91.23366985622272,-15.893669198606666,-1.9038823608556736
OrientationDeg,1769688663578,519437145977937,91.22963321442319,-15.894961811907091,-1.9169184172168776
OrientationDeg,1769688663587,519437154252351,91.22676453497184,-15.896346632761311,-1.9284575949327911
OrientationDeg,1769688663595,519437162520295,91.22358166681857,-15.896694972408982,-1.9371323620655303
OrientationDeg,1769688663603,519437170776213,91.21921717593898,-15.895079632670274,-1.9440899769522462
OrientationDeg,1769688663612,519437179057982,91.21447019446578,-15.892007755091061,-1.9500866696001058
OrientationDeg,1769688663620,519437187332437,91.21024913755872,-15.886142330141313,-1.9540722984242198
OrientationDeg,1769688663628,519437195606292,91.20867136386045,-15.878683763567658,-1.9548276746577409
OrientationDeg,1769688663635,519437203873798,91.21022181680206,-15.870535347887833,-1.9532678302060393
OrientationDeg,1769688663645,519437212144874,91.21515321338279,-15.862694290720658,-1.953094087269027
OrientationDeg,1769688663653,519437220413387,91.22261861014562,-15.856441252535511,-1.955299811484118
OrientationDeg,1769688663661,519437228675075,91.23201012025436,-15.853347176841496,-1.9584566395411334
OrientationDeg,1769688663669,519437236946690,91.24162019641659,-15.853087629653036,-1.9628557082534446
OrientationDeg,1769688663678,519437245228226,91.25033551779757,-15.85591532796942,-1.9675245694379715
OrientationDeg,1769688663686,519437253499496,91.25762332964194,-15.861135300042603,-1.9705902571582494
OrientationDeg,1769688663694,519437261770267,91.26319676400465,-15.868616064731059,-1.9707996451449927
OrientationDeg,1769688663702,519437270041181,91.26703533031821,-15.877493603104783,-1.9711654871524114
OrientationDeg,1769688663711,519437278317569,91.2695693305003,-15.88698073586193,-1.9730416547400493
OrientationDeg,1769688663719,519437286582938,91.2716798589538,-15.894900340204561,-1.9737791017269992
OrientationDeg,1769688663727,519437294855225,91.27333959492216,-15.900326925500137,-1.974072159531075
OrientationDeg,1769688663735,519437303124929,91.27440510443267,-15.902907029459108,-1.977928868534605
OrientationDeg,1769688663744,519437311385559,91.27527936864641,-15.901069708572376,-1.9828045563849364
OrientationDeg,1769688663752,519437319666380,91.27661808572373,-15.895788264796662,-1.9862098325730109
OrientationDeg,1769688663760,519437327937600,91.2792681991217,-15.888322868033839,-1.989833034484291
OrientationDeg,1769688663769,519437336208431,91.28256035030165,-15.879018442836989,-1.994400723491737
OrientationDeg,1769688663777,519437344475217,91.28575687883324,-15.867845960902141,-1.9965682413361583
OrientationDeg,1769688663785,519437352737606,91.2889738979323,-15.855964846840903,-1.9952628214310395
OrientationDeg,1769688663794,519437361012905,91.29217042646383,-15.844276685623718,-1.992927963951953
OrientationDeg,1769688663802,519437369287085,91.29465661532174,-15.834164590557515,-1.99099373975637
OrientationDeg,1769688663810,519437377562821,91.2967603135861,-15.827122665523232,-1.9913491230366223
OrientationDeg,1769688663818,519437385838403,91.29729306834139,-15.824423033253785,-1.9956982459906278
OrientationDeg,1769688663827,519437394097386,91.29624804939834,-15.825269976710866,-2.0027928915475672
OrientationDeg,1769688663835,519437402375522,91.29456782286252,-15.830179175176813,-2.0067968765050757
OrientationDeg,1769688663843,519437410641003,91.29279880386753,-15.839101109780142,-2.0077560911966392
OrientationDeg,1769688663851,519437418917379,91.29072925654896,-15.850420440782145,-2.008227801136193
OrientationDeg,1769688663860,519437427194622,91.28907635076985,-15.862516705802237,-2.006105746738435
OrientationDeg,1769688663867,519437435449239,91.28871435074382,-15.873192291474968,-2.001862278273153
OrientationDeg,1769688663876,519437443729971,91.2903877470905,-15.881029933547557,-1.997687111699571
OrientationDeg,1769688663884,519437451997801,91.29535329461709,-15.8848241036315,-1.9915877527707495
OrientationDeg,1769688663893,519437460271840,91.30380223862039,-15.88415645264013,-1.981456020910682
OrientationDeg,1769688663901,519437468535835,91.31416363559129,-15.880652565595915,-1.968591786495786
OrientationDeg,1769688663909,519437476791073,91.32466163634558,-15.875702385994948,-1.9580459744172862
OrientationDeg,1769688663918,519437485081408,91.33308325959223,-15.87136521587199,-1.9523241968835197
OrientationDeg,1769688663926,519437493343298,91.33963341100628,-15.868040621293487,-1.9475360208319292
OrientationDeg,1769688663934,519437501613298,91.34412767548014,-15.86785962128048,-1.941882331746451
OrientationDeg,1769688663942,519437509900478,91.34621088317698,-15.871588904567307,-1.9411433906556204
OrientationDeg,1769688663951,519437518171351,91.34513854347733,-15.879020150384282,-1.9452028709001352
OrientationDeg,1769688663959,519437526439191,91.3417985809732,-15.888932462417262,-1.9472865054838122
OrientationDeg,1769688663967,519437534709740,91.3371199013917,-15.90110044442364,-1.946193248329787
OrientationDeg,1769688663975,519437542979709,91.33212020291927,-15.914928162398331,-1.946115128041155
OrientationDeg,1769688663984,519437551251843,91.32771473090463,-15.928556097339799,-1.9450523932949833
OrientationDeg,1769688663992,519437559522718,91.32391031553692,-15.939626126437098,-1.9418552244331826
OrientationDeg,1769688664000,519437567793458,91.32148559838157,-15.945930391041019,-1.9360783784992328
OrientationDeg,1769688664009,519437576064320,91.32121239081476,-15.947026636402805,-1.9280746774524473
OrientationDeg,1769688664017,519437584331533,91.32366442872677,-15.942450409658898,-1.919585392644356
OrientationDeg,1769688664025,519437592606200,91.32910808949532,-15.932572248571766,-1.911686919199471
OrientationDeg,1769688664033,519437600864612,91.33743409009355,-15.918348379625215,-1.9061745296524477
OrientationDeg,1769688664042,519437609148231,91.34819163803627,-15.900914321768758,-1.9037521603746204
OrientationDeg,1769688664050,519437617422198,91.36144220502615,-15.88074477314971,-1.8997159454619659
OrientationDeg,1769688664058,519437625690803,91.37577877209401,-15.860930394367502,-1.8892518822100948
OrientationDeg,1769688664066,519437633960873,91.39018364105357,-15.844638685649729,-1.8746683611150596
OrientationDeg,1769688664075,519437642231694,91.40406941563617,-15.83542988310126,-1.8565367701896147
OrientationDeg,1769688664083,519437650502650,91.41739511470689,-15.835957515214643,-1.836581091868953
NMEA,$PGLOR,2,NEW,PERFIX,31,PER,1000,QOP,-1,H,LTECO,*1B,1769688664085
OrientationDeg,1769688664090,519437658773533,91.43043394583242,-15.84700705374443,-1.8195468135223527
NMEA,$PGLOR,0,RID,4776,154,20,24,625212*33,1769688664098
NMEA,$GPGGA,121103.24,,,,,0,00,999.9,,M,,M,,*60,1769688664098
NMEA,$PGLOR,12,STA,121103.24,0.000,0.202,-2352,98,9999,0,P,D,L,1,C,0,S,00000000,0,2,R,00000000,TPeF,0,105,LC,,,DR,0,,,,*00,1769688664098
NMEA,$PGLOR,1,UNC,121103.24,201691.453,9999.0,9999.0,0.00,0.00,10588.6,10588.6,90.0*2D,1769688664098
OrientationDeg,1769688664100,519437667044264,91.44241409763663,-15.867796442030658,-1.8124901608926718
NMEA,$PGLOR,2,SAT*32,1769688664098
NMEA,$PGLOR,2,SVC,GPS,0,0,1,00*6B,1769688664098
NMEA,$PGLOR,1,GLO,+1,-4,+5,+6,+1,-4,+5,+6,-2,-7,+0,-1,-2,-7,+0,-1,+4,-3,+3,+2,+4,-3,+3,+2*33,1769688664098
NMEA,$PGLOR,2,SIO,TxERR,0,RxERR,0,TxCNT,0,RxCNT,0,MLFRMPKT,0,DTMS,989,DTIN,22,31,DTOUT,202,454,HATMD,0*1A,1769688664098
NMEA,$PGLOR,1,LSQ,121103.24,,,,,,,,,,,,,,,,00,,*3D,1769688664098
NMEA,$PGLOR,6,PWR,mA,1.5,RFTm,0,OscTm,0,MeasTm,0,UTC,121103.24,GNSSmA,0.0,CPUTm,0,COPTm,0,COPMargTm,255,SrchTm,0,TrkTm,*00,1769688664098
NMEA,$PGLOR,2,PFM,HAL,-,0,0,0,0,RF,-,-180,0.0,0,RTC,,P,STO,P,LTO,P,SW,P,,,OSC,U,U,*75,1769688664098
NMEA,$PGLOR,3,AGC,G,0.0,R,0.0,B,0.0,E5A,0.0,AL1,0.0,AL5,0.0,LTE,,PM1,,PM5,*0B,1769688664098
NMEA,$PSSGR,GSA,A,1,,,,,,,,,,,,,140.0,99.0,99.0,1,1*4B,1769688664098
NMEA,$PSSGR,GSA,A,1,,,,,,,,,,,,,140.0,99.0,99.0,1,8*42,1769688664098
NMEA,$PSSGR,GSA,A,1,,,,,,,,,,,,,140.0,99.0,99.0,1,9*43,1769688664098
OrientationDeg,1769688664108,519437675315524,91.45399126827982,-15.895578236479684,-1.8148766716773566
NMEA,$PSSGR,GSA,A,1,,,,,,,,,,,,,140.0,99.0,99.0,2,1*48,1769688664098
NMEA,$PSSGR,GSA,A,1,,,,,,,,,,,,,140.0,99.0,99.0,5,1*4F,1769688664098
NMEA,$PSSGR,GSA,A,1,,,,,,,,,,,,,140.0,99.0,99.0,5,8*46,1769688664098
NMEA,$PSSGR,GSA,A,1,,,,,,,,,,,,,140.0,99.0,99.0,5,9*47,1769688664098
NMEA,$PSSGR,GSA,A,1,,,,,,,,,,,,,140.0,99.0,99.0,4,1*4E,1769688664098
OrientationDeg,1769688664116,519437683582979,91.46645636351508,-15.927202012336844,-1.81815068016732
NMEA,$PSSGR,GSA,A,1,,,,,,,,,,,,,140.0,99.0,99.0,4,5*4A,1769688664098
NMEA,$PSSGR,GSA,A,1,,,,,,,,,,,,,140.0,99.0,99.0,4,3*4C,1769688664098
NMEA,$PSSGR,GSA,A,1,,,,,,,,,,,,,140.0,99.0,99.0,3,7*4F,1769688664098
NMEA,$PSSGR,GSA,A,1,,,,,,,,,,,,,140.0,99.0,99.0,3,1*49,1769688664098
NMEA,$PSSGR,GSA,A,1,,,,,,,,,,,,,140.0,99.0,99.0,6,1*4C,1769688664098
NMEA,$PGLOR,0,NVM,aeopt,AEOPT*03,1769688664098
NMEA,$GPGSA,A,1,,,,,,,,,,,,,140.0,99.0,99.0*35,1769688664098
NMEA,$GPGSA,A,1,,,,,,,,,,,,,140.0,99.0,99.0,8*21,1769688664098
NMEA,$GPGSA,A,1,,,,,,,,,,,,,140.0,99.0,99.0,9*20,1769688664098
OrientationDeg,1769688664124,519437691855602,91.48045142112443,-15.960927778911074,-1.819118432595346
NMEA,$QZGSA,A,1,,,,,,,,,,,,,140.0,99.0,99.0,8*3D,1769688664098
NMEA,$QZGSA,A,1,,,,,,,,,,,,,140.0,99.0,99.0*29,1769688664098
NMEA,$QZGSA,A,1,,,,,,,,,,,,,140.0,99.0,99.0,9*3C,1769688664098
NMEA,$BDGSA,A,1,,,,,,,,,,,,,140.0,99.0,99.0,5*3D,1769688664098
NMEA,$BDGSA,A,1,,,,,,,,,,,,,140.0,99.0,99.0,3*3B,1769688664098
NMEA,$BDGSA,A,1,,,,,,,,,,,,,140.0,99.0,99.0*24,1769688664098
NMEA,$GAGSA,A,1,,,,,,,,,,,,,140.0,99.0,99.0,1*39,1769688664098
NMEA,$NCGSA,A,1,,,,,,,,,,,,,140.0,99.0,99.0,1*32,1769688664098
NMEA,$GAGSA,A,1,,,,,,,,,,,,,140.0,99.0,99.0*24,1769688664098
NMEA,$GNGSA,A,1,,,,,,,,,,,,,140.0,99.0,99.0*2B,1769688664098
NMEA,$GNGSA,A,1,,,,,,,,,,,,,140.0,99.0,99.0*2B,1769688664098
NMEA,$GPRMC,121103.24,V,,,,,,,290126,,,N*75,1769688664098
OrientationDeg,1769688664133,519437700131136,91.49482896932727,-15.994474253019591,-1.818782045778723
OrientationDeg,1769688664141,519437708388336,91.50709598907667,-16.024940311812433,-1.8138209805637664
OrientationDeg,1769688664148,519437716666300,91.51593425386267,-16.05054498346352,-1.802482012767899
OrientationDeg,1769688664157,519437724941803,91.52182870711636,-16.068168579069443,-1.7852576630633021
OrientationDeg,1769688664166,519437733214720,91.52672595275124,-16.076986353287932,-1.762468950340966
OrientationDeg,1769688664174,519437741481290,91.53404108535233,-16.078543636418694,-1.7315494310202588
OrientationDeg,1769688664181,519437749740617,91.54567972769803,-16.07622307964818,-1.6948449549159623
OrientationDeg,1769688664191,519437758025398,91.56265957797473,-16.074771664449553,-1.6553580304985318
OrientationDeg,1769688664199,519437766294693,91.58606663626034,-16.080172636535742,-1.6095229788561034
OrientationDeg,1769688664207,519437774565659,91.61566867612316,-16.095436401783427,-1.5434720613743182
OrientationDeg,1769688664215,519437782837031,91.65380162225938,-16.124329809519875,-1.473458993843691
OrientationDeg,1769688664224,519437791116866,91.70208422950219,-16.167266086189866,-1.4053905025141076
OrientationDeg,1769688664232,519437799378859,91.7580576297504,-16.221569505186054,-1.3326053386758072
OrientationDeg,1769688664240,519437807649641,91.818784841661,-16.284096471942934,-1.25854506389683
OrientationDeg,1769688664248,519437815920372,91.88330280856098,-16.35282525046619,-1.1777722072676113
OrientationDeg,1769688664257,519437824190209,91.95060749264223,-16.427538982249665,-1.0889188099634444
OrientationDeg,1769688664265,519437832462617,92.01839028996545,-16.511039752400364,-0.9934910354180226
OrientationDeg,1769688664273,519437840735729,92.08324293613475,-16.604553579874302,-0.8967530384907222
OrientationDeg,1769688664282,519437849006643,92.14277486494058,-16.709950228956767,-0.7983324137892186
OrientationDeg,1769688664289,519437857272319,92.19592056687242,-16.826644010926437,-0.6918429878004027
OrientationDeg,1769688664298,519437865543447,92.24436709865535,-16.954786897492337,-0.5749124437264587
OrientationDeg,1769688664306,519437873816985,92.29087385671397,-17.092939426286893,-0.45110902180018936
OrientationDeg,1769688664315,519437882087867,92.33845295447225,-17.238407087682532,-0.328189949288878
OrientationDeg,1769688664323,519437890359617,92.38810159954909,-17.386511202097797,-0.21381101447846268
OrientationDeg,1769688664331,519437898616441,92.44045499953722,-17.53083480680746,-0.10915233265126141
OrientationDeg,1769688664339,519437906897335,92.4942359090619,-17.667228561890735,-0.011048111126973301
OrientationDeg,1769688664348,519437915168178,92.54660979961756,-17.790337599038338,0.07814760938870088
OrientationDeg,1769688664356,519437923445663,92.59407278416,-17.897424719940382,0.1551297777296287
OrientationDeg,1769688664364,519437931716607,92.63175493781097,-17.986391348974383,0.21638057966898908
OrientationDeg,1769688664372,519437939970972,92.65606358106703,-18.05562726904351,0.26185968774220986
OrientationDeg,1769688664381,519437948254814,92.66672550636144,-18.104806338614893,0.29507873965739
OrientationDeg,1769688664389,519437956526948,92.66505894020395,-18.13258130287475,0.32012266878587314
OrientationDeg,1769688664397,519437964796684,92.65380961864093,-18.140142322285953,0.3395051448247826
OrientationDeg,1769688664406,519437973067912,92.6359623343397,-18.12845245352148,0.35646821311320015
OrientationDeg,1769688664414,519437981338633,92.61282848362083,-18.099063857070206,0.37031575464473987
OrientationDeg,1769688664421,519437989609538,92.58554187788661,-18.05235219333649,0.3811925374132943
OrientationDeg,1769688664430,519437997877084,92.55519534740426,-17.988682877440922,0.38865806757825044
OrientationDeg,1769688664439,519438006151172,92.52167277895785,-17.909707107615358,0.3935819669591685
OrientationDeg,1769688664446,519438014423144,92.48327345544408,-17.81909269544409,0.3987461502606535
OrientationDeg,1769688664455,519438022694150,92.4415819807503,-17.721166565766325,0.4004423583719174
OrientationDeg,1769688664463,519438030953468,92.40217178923933,-17.62021124719166,0.39431506503660774
OrientationDeg,1769688664472,519438039234626,92.367167069743,-17.519273004089918,0.38573909552299557
OrientationDeg,1769688664480,519438047505641,92.33813193558126,-17.421696921607115,0.37786362060570644
OrientationDeg,1769688664488,519438055777175,92.31661000950658,-17.33002553766179,0.37137168588216796
OrientationDeg,1769688664496,519438064047663,92.30195242354773,-17.247378541157342,0.36535831796778
OrientationDeg,1769688664505,519438072318769,92.29310049838341,-17.17627456435022,0.35718935835959187
OrientationDeg,1769688664513,519438080589276,92.28978785663594,-17.117879862041192,0.34649691065734844
OrientationDeg,1769688664521,519438088861453,92.29170713979272,-17.073855877745878,0.33603124657989064
OrientationDeg,1769688664530,519438097131257,92.29772453645148,-17.04414284730903,0.32505625316159087
OrientationDeg,1769688664538,519438105398612,92.3047801218641,-17.02819947823893,0.3137490350731934
OrientationDeg,1769688664546,519438113673249,92.31274412243636,-17.025231761044555,0.30667215868026687
OrientationDeg,1769688664554,519438121947235,92.32222442500432,-17.033977818276757,0.30080099743883265
OrientationDeg,1769688664563,519438130204761,92.33329616164889,-17.053063074365067,0.29233970039808266
OrientationDeg,1769688664571,519438138473468,92.34625303050439,-17.080026953660983,0.28439336226815465
OrientationDeg,1769688664579,519438146753507,92.3593055220083,-17.11079866341918,0.27874002002822035
OrientationDeg,1769688664588,519438155028531,92.37142227759591,-17.141811137345627,0.2746059679917908
OrientationDeg,1769688664596,519438163301500,92.38061571221874,-17.17079162999399,0.2687715456975719
OrientationDeg,1769688664603,519438171556239,92.38548563709696,-17.194736565676763,0.26180125760829454
OrientationDeg,1769688664612,519438179840114,92.38549929747529,-17.212662397153462,0.25806279625477035
OrientationDeg,1769688664621,519438188097987,92.38214567459283,-17.22358216208902,0.255748616106179
OrientationDeg,1769688664629,519438196382268,92.37784265541575,-17.227168011403275,0.254464567222643
OrientationDeg,1769688664636,519438204656112,92.37518571182858,-17.225141152767073,0.25606096385857485
OrientationDeg,1769688664645,519438212910718,92.37603948547485,-17.21899227496677,0.2615245282252032
OrientationDeg,1769688664654,519438221195792,92.38063620278626,-17.209950812052966,0.26981693816655405
OrientationDeg,1769688664662,519438229465629,92.38751420328049,-17.20073005667345,0.28379526714852893
OrientationDeg,1769688664670,519438237736522,92.39613390201305,-17.195713282728075,0.3079201889881016
OrientationDeg,1769688664679,519438246007334,92.40570982722937,-17.19933157544089,0.34170745394528856
OrientationDeg,1769688664686,519438254278443,92.41710941295412,-17.216328501190464,0.38192590229499795
OrientationDeg,1769688664695,519438262549387,92.43277786691016,-17.25024722060875,0.4271434621477749
OrientationDeg,1769688664703,519438270809325,92.45550190627876,-17.30268429041423,0.47606802713129687
OrientationDeg,1769688664712,519438279090962,92.486647568894,-17.374973305042353,0.52987150829675
OrientationDeg,1769688664720,519438287363105,92.52473270370604,-17.465707245524094,0.5997489325393291
OrientationDeg,1769688664728,519438295632699,92.56543380097014,-17.57403063066591,0.6871388017312622
OrientationDeg,1769688664735,519438303903957,92.60392191694314,-17.699146035882205,0.8017936121511225
OrientationDeg,1769688664745,519438312174810,92.63774501371307,-17.840624866802557,0.9593872605619144
OrientationDeg,1769688664753,519438320445420,92.66462863828622,-18.000507642441505,1.1514118392178876
OrientationDeg,1769688664761,519438328715377,92.68339116793624,-18.178753381664038,1.3629515489930564
OrientationDeg,1769688664769,519438336984400,92.69276218747751,-18.372005046493086,1.579908345831986
OrientationDeg,1769688664777,519438345258060,92.69459267817507,-18.573995938365165,1.7956977139313723
OrientationDeg,1769688664786,519438353513370,92.69529618765955,-18.776572518958574,1.999010887738084
OrientationDeg,1769688664794,519438361814182,92.69867713129872,-18.97339637272354,2.1784143440249313
OrientationDeg,1769688664803,519438370073011,92.70707826397785,-19.155675338650962,2.3260683062852094
OrientationDeg,1769688664811,519438378328788,92.72486407657658,-19.32091127505191,2.4470913609716076
OrientationDeg,1769688664819,519438386611480,92.75457539946615,-19.468393842252702,2.5418075151828785
OrientationDeg,1769688664827,519438394883443,92.79358944000523,-19.59710192697242,2.6081948194812865
OrientationDeg,1769688664836,519438403155660,92.83767148090851,-19.70528870833084,2.6497808531297324
OrientationDeg,1769688664844,519438411425627,92.88072899343626,-19.78876898791403,2.6761541345058557
OrientationDeg,1769688664852,519438419697466,92.91615718466113,-19.84454943531823,2.6969544084060715
OrientationDeg,1769688664860,519438427967252,92.94149718648185,-19.872454173172315,2.71819202785658
OrientationDeg,1769688664869,519438436238318,92.95719979138369,-19.875911956439637,2.7412031486137645
OrientationDeg,1769688664877,519438444506852,92.96508182968591,-19.85945632318178,2.759389167609158
OrientationDeg,1769688664885,519438452779983,92.96691232038347,-19.82933689648932,2.7703287827819914
OrientationDeg,1769688664894,519438461040430,92.96338111258257,-19.789120742656284,2.7715121130556963
OrientationDeg,1769688664902,519438469318110,92.95529416860529,-19.74168166377596,2.763464229222717
OrientationDeg,1769688664910,519438477592839,92.94352575266532,-19.690202528001574,2.7503573096488743
OrientationDeg,1769688664918,519438485865695,92.92918918559747,-19.637410288359252,2.7317277552442527
OrientationDeg,1769688664927,519438494131451,92.91199076926739,-19.585383029903973,2.705431953826527
OrientationDeg,1769688664935,519438502391328,92.89209442821516,-19.53645155469,2.673580006962407
OrientationDeg,1769688664943,519438510674706,92.8699646153043,-19.490245324954866,2.642007670967435
OrientationDeg,1769688664951,519438518947153,92.84793042504185,-19.448019387958553,2.609473132073137
OrientationDeg,1769688664959,519438527218160,92.82819117834049,-19.409041205912583,2.5752912369283965
OrientationDeg,1769688664968,519438535489003,92.81140257336062,-19.3725714108393,2.541192371270754
OrientationDeg,1769688664976,519438543760100,92.79727091196787,-19.338664644252066,2.5089306130564335
OrientationDeg,1769688664985,519438552031959,92.78506536392103,-19.30594633058041,2.47859539507488
OrientationDeg,1769688664993,519438560301797,92.77406192916817,-19.274049347156453,2.4475897513376066
OrientationDeg,1769688665001,519438568561999,92.76571543800242,-19.24164692973391,2.416446223156464
OrientationDeg,1769688665009,519438576840227,92.76030592817978,-19.20793482353802,2.3840391099788696
OrientationDeg,1769688665018,519438585114611,92.75721868267493,-19.173264783311037,2.35178845082195
OrientationDeg,1769688665026,519438593385350,92.7550603428972,-19.137805856234916,2.3187273470313263
OrientationDeg,1769688665034,519438601656203,92.75314105974041,-19.101100419635266,2.283717718336545
OrientationDeg,1769688665042,519438609930597,92.75192528606817,-19.06295210557345,2.247926673312032
OrientationDeg,1769688665051,519438618198918,92.75195943701402,-19.023478734812656,2.2119149277999632
OrientationDeg,1769688665059,519438626468813,92.75264928612017,-18.983839731964487,2.176190263676446
OrientationDeg,1769688665067,519438634736666,92.75391970130579,-18.944306597048453,2.1396464037393508
NMEA,$GPGGA,121104.24,,,,,0,00,999.9,,M,,M,,*67,1769688665072
NMEA,$PGLOR,12,STA,121104.24,-0.001,0.202,-2352,98,9999,0,P,D,L,1,C,0,S,00000000,0,2,R,00000000,TPEF,43,1105,LC,,,DR,0,*00,1769688665072
NMEA,$PGLOR,1,UNC,121104.24,201691.453,9999.0,9999.0,0.00,0.00,10588.6,10588.6,90.0*2A,1769688665072
NMEA,$PGLOR,2,SAT,8,1,G29,,20,E02,,20,G28,,20,G25,,20,B26,,20,B45,,20*38,1769688665072
OrientationDeg,1769688665076,519438643010936,92.75597558824597,-18.9050739904559,2.1049336748300536
NMEA,$PGLOR,2,SAT,8,2,B35,,20,R18,,20,R16,,20,R09,,20,B29,,20,R19,,20*3A,1769688665072
NMEA,$PGLOR,2,SAT,8,3,E18,,20,E08,,20,E30,,20,E07,,20,G31,,20,E36,,20*39,1769688665072
NMEA,$PGLOR,2,SAT,8,4,G32,,20,E25,,20,R07,,20,E11,,20,G26,,20,G11,,20*2E,1769688665072
NMEA,$PGLOR,2,SAT,8,5,G12,,20,R08,,20,R17,,20,G18,,20,B44,,20,E03,,20*3F,1769688665072
NMEA,$PGLOR,2,SAT,8,6,B24,,20,B14,,20,B42,,20,B36,,20,E10,,20,E34,,20*3A,1769688665072
NMEA,$PGLOR,2,SAT,8,7,R10,,20,R15,,20,B33,,20,B30,,20,R20,,20,B21,,20*2A,1769688665072
NMEA,$PGLOR,2,SAT,8,8,B10,,20,B56,,00,E16,,00,R06,,00,N02,,00,N06,,00*20,1769688665072
NMEA,$PGLOR,2,SVC,GPS,0,3,1,09,025,CLIN,CLIN,028,CLIN,CLIN,029,CLIN,CLIN,031,CLIN,CLIN*65,1769688665072
NMEA,$PGLOR,2,SVC,GPS,0,3,2,09,011,CLIN,CLIN,012,CLIN,CLIN,026,CLIN,CLIN,032,CLIN,CLIN*64,1769688665072
OrientationDeg,1769688665084,519438651285411,92.75923358848007,-18.866502204665547,2.070884541487305
NMEA,$PGLOR,2,SVC,GPS,0,3,3,09,018,CLIN,CLIN*76,1769688665072
NMEA,$PGLOR,2,SVC,GLO,0,3,1,11,056,CLIN,CLIN,057,CLIN,CLIN,058,CLIN,CLIN,062,CLIN,CLIN*60,1769688665072
NMEA,$PGLOR,2,SVC,GLO,0,3,2,11,052,CLIN,CLIN,063,CLIN,CLIN,064,CLIN,CLIN,065,CLIN,CLIN*68,1769688665072
NMEA,$PGLOR,2,SVC,GLO,0,3,3,11,055,CLIN,CLIN,059,CLIN,CLIN,061,CLIN,CLIN*7D,1769688665072
NMEA,$PGLOR,2,SVC,BDS,0,4,1,14,101,CLIN,CLIN,104,CLIN,CLIN,110,CLIN,CLIN,120,CLIN,CLIN*7D,1769688665073
NMEA,$PGLOR,2,SVC,BDS,0,4,2,14,089,CLIN,CLIN,099,CLIN,CLIN,117,CLIN,CLIN,119,CLIN,CLIN*77,1769688665073
NMEA,$PGLOR,2,SVC,BDS,0,4,3,14,096,CLIN,CLIN,105,CLIN,CLIN,108,CLIN,CLIN,111,CLIN,CLIN*7A,1769688665073
NMEA,$PGLOR,2,SVC,BDS,0,4,4,14,085,CLIN,CLIN,131,CLIN,CLIN*70,1769688665073
NMEA,$PGLOR,2,SVC,GAL,0,3,1,12,140,CLIN,CLIN,146,CLIN,CLIN,156,CLIN,CLIN,168,CLIN,CLIN*6E,1769688665073
NMEA,$PGLOR,2,SVC,GAL,0,3,2,12,145,CLIN,CLIN,149,CLIN,CLIN,163,CLIN,CLIN,174,CLIN,CLIN*6C,1769688665073
OrientationDeg,1769688665092,519438659552317,92.7644450228168,-18.828983975554667,2.036133606207338
NMEA,$PGLOR,2,SVC,GAL,0,3,3,12,141,CLIN,CLIN,148,CLIN,CLIN,154,CLIN,CLIN,172,CLIN,CLIN*6A,1769688665073
NMEA,$PGLOR,2,SVC,NIC,0,1,1,02,176,CLIN,CLIN,180,CLIN,CLIN*61,1769688665073
NMEA,$PGLOR,2,SIO,TxERR,0,RxERR,0,TxCNT,13117,RxCNT,2560,MLFRMPKT,0,DTMS,977,DTIN,11,23,DTOUT,17,953,HATMD,-23*0C,1769688665073
NMEA,$PGLOR,2,HLA,121104.24,L,,Al,,A,,H,,,M,,Ac,0,Gr,0,S,,,Sx,,,T,,Tr,,Mn,,Ap,,Ta,0,,,Aa,1,Ga,1,*1B,1769688665073
NMEA,$PGLOR,1,LSQ,121104.24,,,,,,,,,,,,,,,,00,,*3A,1769688665073
NMEA,$PGLOR,6,PWR,mA,40.8,RFTm,1000,OscTm,1000,MeasTm,1000,UTC,121104.24,GNSSmA,39.3,CPUTm,471,COPTm,0,COPMargTm,255,Sr*00,1769688665073
NMEA,$PGLOR,3,AGC,G,28.5,R,47.9,B,50.9,E5A,0.0,AL1,21.6,AL5,0.0,LTE,,PM1,,PM5,*07,1769688665073
NMEA,$PSSGR,GSA,A,1,,,,,,,,,,,,,140.0,99.0,99.0,1,1*4B,1769688665073
NMEA,$PSSGR,GSA,A,1,,,,,,,,,,,,,140.0,99.0,99.0,1,8*42,1769688665073
NMEA,$PSSGR,GSA,A,1,,,,,,,,,,,,,140.0,99.0,99.0,1,9*43,1769688665073
NMEA,$PSSGR,GSA,A,1,,,,,,,,,,,,,140.0,99.0,99.0,2,1*48,1769688665073
NMEA,$PSSGR,GSA,A,1,,,,,,,,,,,,,140.0,99.0,99.0,5,1*4F,1769688665073
NMEA,$PSSGR,GSA,A,1,,,,,,,,,,,,,140.0,99.0,99.0,5,8*46,1769688665073
NMEA,$PSSGR,GSA,A,1,,,,,,,,,,,,,140.0,99.0,99.0,5,9*47,1769688665073
OrientationDeg,1769688665100,519438667823556,92.77156207993193,-18.79234854839401,2.00091821806381
NMEA,$PSSGR,GSA,A,1,,,,,,,,,,,,,140.0,99.0,99.0,4,1*4E,1769688665073
NMEA,$PSSGR,GSA,A,1,,,,,,,,,,,,,140.0,99.0,99.0,4,5*4A,1769688665073
NMEA,$PSSGR,GSA,A,1,,,,,,,,,,,,,140.0,99.0,99.0,4,3*4C,1769688665073
NMEA,$PSSGR,GSA,A,1,,,,,,,,,,,,,140.0,99.0,99.0,3,1*49,1769688665073
NMEA,$PSSGR,GSA,A,1,,,,,,,,,,,,,140.0,99.0,99.0,3,7*4F,1769688665073
NMEA,$PSSGR,GSA,A,1,,,,,,,,,,,,,140.0,99.0,99.0,6,1*4C,1769688665073
NMEA,$GPGSV,3,1,09,29,84,103,,28,62,304,,25,57,062,,31,30,312,*7E,1769688665073
NMEA,$GPGSV,3,3,09,18,13,167,*4B,1769688665074
NMEA,$GPGSV,3,2,09,32,28,228,,26,20,285,,11,18,048,,12,18,079,*7A,1769688665074
NMEA,$GLGSV,3,1,11,82,51,062,,80,51,067,,73,48,327,,83,45,153,*63,1769688665074
NMEA,$GLGSV,3,2,11,71,23,271,,72,15,324,,81,14,027,,74,08,300,*62,1769688665074
NMEA,$GLGSV,3,3,11,79,07,101,,84,02,185,,70,,,*69,1769688665074
NMEA,$BDGSV,4,1,14,226,57,314,,245,56,096,,235,53,170,,229,47,063,*6E,1769688665074
NMEA,$BDGSV,4,2,14,244,13,200,,224,12,299,,214,11,291,,242,11,265,*64,1769688665074
NMEA,$BDGSV,4,3,14,236,10,111,,233,06,316,,230,04,037,,221,01,221,*6D,1769688665074
NMEA,$BDGSV,4,4,14,210,00,053,,00,21,047,*58,1769688665074
NMEA,$GAGSV,3,1,12,102,70,013,,118,44,059,,108,42,233,,130,38,280,*65,1769688665074
NMEA,$GAGSV,3,2,12,107,31,300,,136,30,112,,125,26,072,,111,23,057,*6D,1769688665074
NMEA,$GAGSV,3,3,12,103,13,185,,110,10,033,,134,10,161,,116,06,079,*69,1769688665074
OrientationDeg,1769688665109,519438676091755,92.77952608050418,-18.757241376060144,1.9685804739949733
NMEA,$NCGSV,1,1,02,02,,,,06,,,,1*78,1769688665074
NMEA,$GPGSA,A,1,,,,,,,,,,,,,140.0,99.0,99.0*35,1769688665074
NMEA,$GPGSA,A,1,,,,,,,,,,,,,140.0,99.0,99.0,8*21,1769688665074
NMEA,$GPGSA,A,1,,,,,,,,,,,,,140.0,99.0,99.0,9*20,1769688665074
NMEA,$QZGSA,A,1,,,,,,,,,,,,,140.0,99.0,99.0*29,1769688665074
NMEA,$QZGSA,A,1,,,,,,,,,,,,,140.0,99.0,99.0,8*3D,1769688665074
NMEA,$QZGSA,A,1,,,,,,,,,,,,,140.0,99.0,99.0,9*3C,1769688665074
NMEA,$BDGSA,A,1,,,,,,,,,,,,,140.0,99.0,99.0*24,1769688665074
NMEA,$BDGSA,A,1,,,,,,,,,,,,,140.0,99.0,99.0,5*3D,1769688665074
NMEA,$BDGSA,A,1,,,,,,,,,,,,,140.0,99.0,99.0,3*3B,1769688665074
NMEA,$GAGSA,A,1,,,,,,,,,,,,,140.0,99.0,99.0*24,1769688665074
OrientationDeg,1769688665117,519438684368590,92.78630845834999,-18.723216788709728,1.9404968705619963
NMEA,$GAGSA,A,1,,,,,,,,,,,,,140.0,99.0,99.0,1*39,1769688665074
NMEA,$NCGSA,A,1,,,,,,,,,,,,,140.0,99.0,99.0,1*32,1769688665074
NMEA,$GNGSA,A,1,,,,,,,,,,,,,140.0,99.0,99.0*2B,1769688665074
NMEA,$GPRMC,121104.24,V,,,,,,,290126,,,N*72,1769688665074
NMEA,$GNGSA,A,1,,,,,,,,,,,,,140.0,99.0,99.0*2B,1769688665074
OrientationDeg,1769688665125,519438692629139,92.78916347742307,-18.692347748755854,1.9155291140510147
OrientationDeg,1769688665133,519438700894243,92.78693683575364,-18.667342426204435,1.8919831041044537
OrientationDeg,1769688665142,519438709177864,92.77989491071935,-18.649667604179736,1.868532503362861
OrientationDeg,1769688665150,519438717445777,92.7702984949355,-18.641035952616132,1.8417112042658672
OrientationDeg,1769688665158,519438725719855,92.76214324906653,-18.642736669719465,1.8154326917644779
OrientationDeg,1769688665166,519438733993860,92.75733479589081,-18.655097604569896,1.7943357315221895
OrientationDeg,1769688665175,519438742246261,92.75906283375082,-18.677437445797715,1.7772392344211185
OrientationDeg,1769688665183,519438750534112,92.76867974010219,-18.707587608341445,1.7633420406159641
OrientationDeg,1769688665191,519438758806622,92.78471702427339,-18.743236073167033,1.7522198246045388
OrientationDeg,1769688665200,519438767074262,92.80528955405345,-18.78065697208224,1.7422802985365835
OrientationDeg,1769688665208,519438775342013,92.82703004618162,-18.816792087886192,1.7343559984388994
OrientationDeg,1769688665216,519438783616386,92.84715178347648,-18.849310618524623,1.7265949825510607
OrientationDeg,1769688665224,519438791887238,92.86245823740649,-18.877150469581597,1.7170900272690477
OrientationDeg,1769688665233,519438800157928,92.87174046448854,-18.899674725917006,1.7061087906309595
OrientationDeg,1769688665240,519438808428740,92.87434959675147,-18.918281868763412,1.6935195780518626
OrientationDeg,1769688665249,519438816701709,92.86987582284507,-18.8962374332172,1.7101092537721772
OrientationDeg,1769688665256,519438824970804,92.82371740443415,-18.704874315693658,1.7686561412336457
OrientationDeg,1769688665266,519438833240782,92.74965766326369,-18.423554191706465,1.7673319383083093
OrientationDeg,1769688665274,519438841512478,92.70737879230131,-18.159589578400272,1.7297077345435883
OrientationDeg,1769688665282,519438849770515,92.6975501500857,-17.950783865283814,1.6995064523027903
OrientationDeg,1769688665291,519438858054621,92.69516641406534,-17.81484261023305,1.6734088330927004
OrientationDeg,1769688665299,519438866319910,92.68231882823659,-17.762415785711326,1.6330743248879538
OrientationDeg,1769688665307,519438874596236,92.65846097746567,-17.790458834896103,1.5817179190752162
OrientationDeg,1769688665315,519438882873387,92.63159101327085,-17.886282973856797,1.5309035528061428
OrientationDeg,1769688665324,519438891124943,92.61015787965539,-18.029530823772184,1.4922883312815352
OrientationDeg,1769688665332,519438899408511,92.5977747466901,-18.198799986878026,1.4734863146003712
OrientationDeg,1769688665339,519438907679679,92.5965316522612,-18.369938914269156,1.4721734241758477
OrientationDeg,1769688665348,519438915950857,92.60743263417652,-18.523068340366258,1.4792829040498905
OrientationDeg,1769688665357,519438924218465,92.62940535273646,-18.643385537690616,1.4802240827731772
OrientationDeg,1769688665365,519438932479308,92.66025731721743,-18.72167828859918,1.4684477694270173
OrientationDeg,1769688665373,519438940747304,92.69631388584594,-18.75460492304052,1.44355023579844
OrientationDeg,1769688665382,519438949038361,92.73125030345051,-18.74568981862636,1.4102531703163335
OrientationDeg,1769688665390,519438957305286,92.76029226780145,-18.703619268433666,1.3768299597779934
OrientationDeg,1769688665397,519438965572681,92.78012030696198,-18.640252188408873,1.348775491370695
OrientationDeg,1769688665406,519438973833899,92.7889722321263,-18.566069503833365,1.3267005334166253
OrientationDeg,1769688665415,519438982117825,92.78697781688868,-18.489824102128512,1.3093203700215874
OrientationDeg,1769688665423,519438990385179,92.7753938160563,-18.417509474291002,1.292774983809172
OrientationDeg,1769688665431,519438998643407,92.75365332392818,-18.35068461099889,1.2703553147454283
OrientationDeg,1769688665439,519439006930852,92.72295162360899,-18.287831502709142,1.2402603273235886
OrientationDeg,1769688665448,519439015216935,92.6861164134151,-18.226959149278695,1.2044037551717257
OrientationDeg,1769688665455,519439023475589,92.64628958036474,-18.16667419211687,1.1624898724431192
OrientationDeg,1769688665464,519439031740785,92.60575923782989,-18.104130149887062,1.114432874886321
OrientationDeg,1769688665473,519439040014091,92.56628074442722,-18.039069182948108,1.0652877428173753
OrientationDeg,1769688665481,519439048286125,92.52896059080228,-17.97136151770577,1.0121110915908296
OrientationDeg,1769688665489,519439056555817,92.49308160709217,-17.901147173038037,0.9558043994554195
OrientationDeg,1769688665497,519439064826641,92.45839107629769,-17.829129658429423,0.9042454358451089
OrientationDeg,1769688665506,519439073097961,92.42678779100805,-17.757410964597,0.8583353588435161
OrientationDeg,1769688665514,519439081369719,92.39962412867891,-17.689243969132978,0.8158247950578856
OrientationDeg,1769688665522,519439089639504,92.37792461768578,-17.62769371942741,0.778700956010721
OrientationDeg,1769688665530,519439097910399,92.3614502014077,-17.575504243979342,0.7473812836541862
OrientationDeg,1769688665539,519439106181474,92.34996182322374,-17.534811684451697,0.7199522578036199
OrientationDeg,1769688665547,519439114446326,92.34203197359733,-17.506778880550673,0.6933381588984008
OrientationDeg,1769688665555,519439122723283,92.3377562751769,-17.49027031332675,0.6666701121709091
OrientationDeg,1769688665563,519439130981298,92.33734646382675,-17.48313276564409,0.6386560912901018
OrientationDeg,1769688665572,519439139266058,92.33989412438711,-17.48216629387653,0.6091836649389382
OrientationDeg,1769688665579,519439147535130,92.34349363407972,-17.484978624267285,0.5792796560095942
OrientationDeg,1769688665588,519439155807174,92.34567929461411,-17.489206511363523,0.5468153933585534
OrientationDeg,1769688665597,519439164079257,92.3448255209679,-17.492401332347796,0.5136039186844837
OrientationDeg,1769688665605,519439172348666,92.34031076592652,-17.493217539953612,0.4832434610195126
OrientationDeg,1769688665613,519439180619541,92.33244238800262,-17.490729643548434,0.45590130663745243
OrientationDeg,1769688665621,519439188887167,92.32246348162528,-17.484951303510606,0.42661062735123456
OrientationDeg,1769688665630,519439197161683,92.31081800909038,-17.474104963108623,0.3952691570862939
OrientationDeg,1769688665637,519439205435354,92.29666585713011,-17.45737612228397,0.36411581050821945
OrientationDeg,1769688665646,519439213704335,92.27894151623394,-17.43428666779474,0.33377733751463934
OrientationDeg,1769688665654,519439221974069,92.25897687329001,-17.405926014813556,0.3043577384078375
OrientationDeg,1769688665663,519439230244983,92.23720223021598,-17.372668116197474,0.2759813706554757
OrientationDeg,1769688665670,519439238508614,92.21369271909282,-17.33585851921298,0.24667332241164186
OrientationDeg,1769688665678,519439246784675,92.18825026443449,-17.295061799300495,0.21537396719984522
OrientationDeg,1769688665688,519439255057644,92.16068362094433,-17.25038553193944,0.18491884738184594
OrientationDeg,1769688665696,519439263330522,92.1298726375984,-17.202782528519037,0.15177169921593606
OrientationDeg,1769688665703,519439271599462,92.09759316358094,-17.153188524955574,0.1129710887481729
OrientationDeg,1769688665712,519439279871301,92.06719882177435,-17.103032738332878,0.07377395378257876
OrientationDeg,1769688665721,519439288141219,92.04117580103662,-17.0542856782265,0.03931890776694407
OrientationDeg,1769688665729,519439296409386,92.01999538442044,-17.0090732410156,0.01273796762921656
OrientationDeg,1769688665736,519439304682977,92.00274232657694,-16.96907223814142,-0.004495319184476309
OrientationDeg,1769688665745,519439312956556,91.98925953315535,-16.935097169662484,-0.018243093430140227
OrientationDeg,1769688665754,519439321221193,91.97946504188553,-16.906316460047343,-0.034318472247714185
OrientationDeg,1769688665762,519439329495708,91.97267583385059,-16.881288939381122,-0.05357073113030376
OrientationDeg,1769688665770,519439337766867,91.96784689010735,-16.858242173574208,-0.0733521429105842
OrientationDeg,1769688665779,519439346038095,91.96387172001039,-16.837454492835274,-0.09393892670849104
OrientationDeg,1769688665787,519439354308501,91.95996485180518,-16.819433038710194,-0.11798358048510278
OrientationDeg,1769688665795,519439362576638,91.95506760617025,-16.804295631962155,-0.1448771168366974
OrientationDeg,1769688665803,519439370837298,91.94915266234904,-16.792230102793326,-0.17232300471677717
OrientationDeg,1769688665811,519439379120715,91.94273911471839,-16.78232120585493,-0.19674910855027825
OrientationDeg,1769688665820,519439387388913,91.93601137838596,-16.77440672415418,-0.21751273688477157
OrientationDeg,1769688665828,519439395666664,91.92929730243179,-16.76732552553217,-0.23519044039552817
OrientationDeg,1769688665836,519439403937099,91.92228952834341,-16.760135043883437,-0.24795633075854645
OrientationDeg,1769688665845,519439412205937,91.91561643352429,-16.752864307511956,-0.25743908792575715
OrientationDeg,1769688665853,519439420475580,91.91047330107926,-16.744992514493518,-0.26512465156760817
OrientationDeg,1769688665860,519439428746738,91.90746118765526,-16.736897032779762,-0.2738398929072651
OrientationDeg,1769688665870,519439437001314,91.9059107347137,-16.72919428694328,-0.2847873521254733
OrientationDeg,1769688665878,519439445270927,91.9053574893909,-16.721336154303177,-0.29817900521034113
OrientationDeg,1769688665886,519439453546276,91.90511843277,-16.713679512243594,-0.3118240156247341
OrientationDeg,1769688665894,519439461819286,91.90499548936492,-16.706994464593446,-0.3258377228521755
OrientationDeg,1769688665903,519439470088186,91.90302839488396,-16.70184962460113,-0.34334392458174134
OrientationDeg,1769688665911,519439478359254,91.89819262095159,-16.698658218711444,-0.3664347397727181
OrientationDeg,1769688665919,519439486629983,91.88996907319085,-16.695962001536582,-0.3907675288147266
OrientationDeg,1769688665927,519439494917123,91.87943009130157,-16.693113812652687,-0.41144301836045766
OrientationDeg,1769688665936,519439503174956,91.86844031692704,-16.69011023696517,-0.42928667412370436
OrientationDeg,1769688665944,519439511443407,91.85913076908827,-16.68678564238667,-0.44488199703082687
OrientationDeg,1769688665952,519439519726417,91.85192491951392,-16.683411528936684,-0.46088670440132706
OrientationDeg,1769688665960,519439527997870,91.84583239077426,-16.67845622669384,-0.48031133551402017
OrientationDeg,1769688665969,519439536268337,91.83957593749454,-16.67070225443858,-0.49997102118369696
OrientationDeg,1769688665977,519439544528499,91.83244522000103,-16.65958782911168,-0.5188464090375858
OrientationDeg,1769688665985,519439552810063,91.8243651062129,-16.64555008282001,-0.5411389725497439
OrientationDeg,1769688665994,519439561084466,91.81554733199442,-16.62956060997301,-0.5676641189131942
OrientationDeg,1769688666002,519439569352085,91.80658612380336,-16.61231779741331,-0.5941482307807715
OrientationDeg,1769688666010,519439577622806,91.79743367031557,-16.595073277306323,-0.6170515626151168
OrientationDeg,1769688666018,519439585905977,91.78869102817794,-16.57889255916256,-0.6366003110716337
OrientationDeg,1769688666027,519439594160686,91.78115049933422,-16.5636919731647,-0.6529932453273404
OrientationDeg,1769688666035,519439602432293,91.7748257441628,-16.550270651445626,-0.6651730200822069
OrientationDeg,1769688666043,519439610711773,91.76981921550117,-16.53832123549269,-0.6736030743435893
OrientationDeg,1769688666051,519439618973500,91.7654683849999,-16.527570517739086,-0.6792691965077909
OrientationDeg,1769688666060,519439627248137,91.76167763001052,-16.51733377172053,-0.6845188372151805
OrientationDeg,1769688666067,519439635519438,91.7582693656147,-16.507090195512802,-0.6896325144694044
NMEA,$GPGGA,121105.24,,,,,0,00,999.9,,M,,M,,*66,1769688666071
NMEA,$PGLOR,12,STA,121105.24,-0.001,0.202,-2352,98,9999,0,P,D,L,1,C,0,S,00000000,0,2,R,00000000,TPEF,40,2105,LC,,,DR,0,*00,1769688666071
NMEA,$PGLOR,1,UNC,121105.24,201691.453,9999.0,9999.0,0.00,0.00,10588.6,10588.6,90.0*2B,1769688666071
OrientationDeg,1769688666076,519439643791665,91.75638423340376,-16.495542053173605,-0.6940660542926831
NMEA,$PGLOR,2,SAT,7,1,G29,,20,E02,,20,G28,,20,G25,,20,B26,,20,B45,,20*37,1769688666071
NMEA,$PGLOR,2,SAT,7,2,B35,,20,R18,,20,R16,,20,R09,,20,B29,,20,R19,,20*35,1769688666071
NMEA,$PGLOR,2,SAT,7,3,E08,,20,E30,,20,E07,,20,G31,,20,E36,,20,E25,,20*38,1769688666071
NMEA,$PGLOR,2,SAT,7,4,R07,,20,E11,,20,G26,,20,G11,,20,R08,,20,R17,,20*2B,1769688666071
NMEA,$PGLOR,2,SAT,7,5,G18,,20,B44,,20,E03,,20,B24,,20,B14,,20,B42,,20*3D,1769688666071
NMEA,$PGLOR,2,SAT,7,6,B36,,20,E10,,20,E34,,20,R10,,20,R15,,20,B33,,20*35,1769688666071
NMEA,$PGLOR,2,SAT,7,7,B30,,20,R20,,20,B21,,20,B10,,20*21,1769688666071
NMEA,$PGLOR,2,SVC,GPS,0,2,1,07,025,CLIN,CLIN,028,CLIN,CLIN,029,CLIN,CLIN,031,CLIN,CLIN*6A,1769688666071
NMEA,$PGLOR,2,SVC,GPS,0,2,2,07,011,CLIN,CLIN,018,CLIN,CLIN,026,CLIN,CLIN*7C,1769688666072
NMEA,$PGLOR,2,SVC,GLO,0,3,1,10,056,CLIN,CLIN,057,CLIN,CLIN,058,CLIN,CLIN,062,CLIN,CLIN*61,1769688666072
NMEA,$PGLOR,2,SVC,GLO,0,3,2,10,052,CLIN,CLIN,063,CLIN,CLIN,064,CLIN,CLIN,065,CLIN,CLIN*69,1769688666072
NMEA,$PGLOR,2,SVC,GLO,0,3,3,10,059,CLIN,CLIN,061,CLIN,CLIN*60,1769688666072
NMEA,$PGLOR,2,SVC,BDS,0,4,1,13,101,CLIN,CLIN,104,CLIN,CLIN,110,CLIN,CLIN,120,CLIN,CLIN*7A,1769688666072
NMEA,$PGLOR,2,SVC,BDS,0,4,2,13,089,CLIN,CLIN,099,CLIN,CLIN,117,CLIN,CLIN,119,CLIN,CLIN*70,1769688666072
OrientationDeg,1769688666085,519439652060879,91.75629544094454,-16.482807165466117,-0.6986861970185207
NMEA,$PGLOR,2,SVC,BDS,0,4,4,13,085,CLIN,CLIN*68,1769688666072
NMEA,$PGLOR,2,SVC,GAL,0,3,1,10,140,CLIN,CLIN,145,CLIN,CLIN,146,CLIN,CLIN,168,CLIN,CLIN*6E,1769688666072
NMEA,$PGLOR,2,SVC,GAL,0,3,2,10,141,CLIN,CLIN,149,CLIN,CLIN,163,CLIN,CLIN,174,CLIN,CLIN*6A,1769688666072
NMEA,$PGLOR,2,SVC,BDS,0,4,3,13,096,CLIN,CLIN,105,CLIN,CLIN,108,CLIN,CLIN,111,CLIN,CLIN*7D,1769688666072
NMEA,$PGLOR,2,SVC,GAL,0,3,3,10,148,CLIN,CLIN,172,CLIN,CLIN*6C,1769688666072
NMEA,$PGLOR,2,SIO,TxERR,0,RxERR,0,TxCNT,228,RxCNT,512,MLFRMPKT,0,DTMS,999,DTIN,9,13,DTOUT,18,985,HATMD,-24*0F,1769688666072
NMEA,$PGLOR,2,HLA,121105.24,L,,Al,,A,,H,,,M,,Ac,0,Gr,0,S,,,Sx,,,T,,Tr,,Mn,,Ap,,Ta,0,,,Aa,1,Ga,1,*1A,1769688666072
NMEA,$PGLOR,1,LSQ,121105.24,,,,,,,,,,,,,,,,00,,*3B,1769688666072
NMEA,$PGLOR,6,PWR,mA,37.6,RFTm,1000,OscTm,1000,MeasTm,1000,UTC,121105.24,GNSSmA,36.6,CPUTm,326,COPTm,0,COPMargTm,255,Sr*00,1769688666072
NMEA,$PGLOR,3,AGC,G,28.9,R,49.3,B,50.9,E5A,0.0,AL1,21.6,AL5,0.0,LTE,,PM1,,PM5,*0F,1769688666072
NMEA,$PSSGR,GSA,A,1,,,,,,,,,,,,,140.0,99.0,99.0,1,1*4B,1769688666072
NMEA,$PSSGR,GSA,A,1,,,,,,,,,,,,,140.0,99.0,99.0,1,8*42,1769688666072
NMEA,$PSSGR,GSA,A,1,,,,,,,,,,,,,140.0,99.0,99.0,1,9*43,1769688666072
NMEA,$PSSGR,GSA,A,1,,,,,,,,,,,,,140.0,99.0,99.0,2,1*48,1769688666072
NMEA,$PSSGR,GSA,A,1,,,,,,,,,,,,,140.0,99.0,99.0,5,1*4F,1769688666072
OrientationDeg,1769688666093,519439660330257,91.75872698828908,-16.46817007007478,-0.7032793391527956
NMEA,$PSSGR,GSA,A,1,,,,,,,,,,,,,140.0,99.0,99.0,5,8*46,1769688666072
NMEA,$PSSGR,GSA,A,1,,,,,,,,,,,,,140.0,99.0,99.0,5,9*47,1769688666072
NMEA,$PSSGR,GSA,A,1,,,,,,,,,,,,,140.0,99.0,99.0,4,1*4E,1769688666072
NMEA,$PSSGR,GSA,A,1,,,,,,,,,,,,,140.0,99.0,99.0,4,5*4A,1769688666072
NMEA,$PSSGR,GSA,A,1,,,,,,,,,,,,,140.0,99.0,99.0,4,3*4C,1769688666072
NMEA,$PSSGR,GSA,A,1,,,,,,,,,,,,,140.0,99.0,99.0,3,7*4F,1769688666072
NMEA,$PSSGR,GSA,A,1,,,,,,,,,,,,,140.0,99.0,99.0,3,1*49,1769688666072
NMEA,$PSSGR,GSA,A,1,,,,,,,,,,,,,140.0,99.0,99.0,6,1*4C,1769688666072
NMEA,$GPGSV,2,1,07,29,84,103,,28,62,304,,25,57,062,,31,30,312,*71,1769688666072
NMEA,$GPGSV,2,2,07,26,20,285,,11,18,048,,18,13,167,*49,1769688666072
NMEA,$GLGSV,3,1,10,82,51,062,,80,51,067,,73,48,327,,83,45,153,*62,1769688666072
NMEA,$GLGSV,3,2,10,71,23,271,,72,15,324,,81,14,027,,74,08,300,*63,1769688666072
NMEA,$GLGSV,3,3,10,79,07,101,,84,02,185,*6F,1769688666072
NMEA,$BDGSV,4,1,13,226,57,314,,245,56,096,,235,53,170,,229,47,063,*69,1769688666072
NMEA,$BDGSV,4,2,13,244,13,200,,224,12,299,,214,11,291,,242,11,265,*63,1769688666072
NMEA,$BDGSV,4,3,13,236,10,111,,233,06,316,,230,04,037,,221,01,221,*6A,1769688666072
NMEA,$BDGSV,4,4,13,210,00,053,*6F,1769688666072
OrientationDeg,1769688666101,519439668596583,91.76378815846408,-16.452054238728135,-0.7080907805362465
NMEA,$GAGSV,3,1,10,102,70,013,,108,42,233,,130,38,280,,107,31,300,*64,1769688666072
NMEA,$GAGSV,3,2,10,136,30,112,,125,26,072,,111,23,057,,103,13,185,*64,1769688666072
NMEA,$GAGSV,3,3,10,110,10,033,,134,10,161,*69,1769688666072
NMEA,$GPGSA,A,1,,,,,,,,,,,,,140.0,99.0,99.0*35,1769688666072
NMEA,$GPGSA,A,1,,,,,,,,,,,,,140.0,99.0,99.0,8*21,1769688666072
NMEA,$GPGSA,A,1,,,,,,,,,,,,,140.0,99.0,99.0,9*20,1769688666072
NMEA,$QZGSA,A,1,,,,,,,,,,,,,140.0,99.0,99.0*29,1769688666072
NMEA,$QZGSA,A,1,,,,,,,,,,,,,140.0,99.0,99.0,8*3D,1769688666072
NMEA,$QZGSA,A,1,,,,,,,,,,,,,140.0,99.0,99.0,9*3C,1769688666072
NMEA,$BDGSA,A,1,,,,,,,,,,,,,140.0,99.0,99.0*24,1769688666072
NMEA,$BDGSA,A,1,,,,,,,,,,,,,140.0,99.0,99.0,5*3D,1769688666072
NMEA,$BDGSA,A,1,,,,,,,,,,,,,140.0,99.0,99.0,3*3B,1769688666072
NMEA,$GAGSA,A,1,,,,,,,,,,,,,140.0,99.0,99.0*24,1769688666072
NMEA,$GAGSA,A,1,,,,,,,,,,,,,140.0,99.0,99.0,1*39,1769688666072
NMEA,$GNGSA,A,1,,,,,,,,,,,,,140.0,99.0,99.0*2B,1769688666072
NMEA,$NCGSA,A,1,,,,,,,,,,,,,140.0,99.0,99.0,1*32,1769688666072
NMEA,$GNGSA,A,1,,,,,,,,,,,,,140.0,99.0,99.0*2B,1769688666072
NMEA,$GPRMC,121105.24,V,,,,,,,290126,,,N*73,1769688666072
OrientationDeg,1769688666109,519439676871710,91.76989434758207,-16.435412482815398,-0.7126529733758448
OrientationDeg,1769688666118,519439685139359,91.7758980838625,-16.417025613569724,-0.7177278572900172
OrientationDeg,1769688666126,519439693405878,91.77996887660782,-16.39834675373703,-0.7224500259665818
OrientationDeg,1769688666134,519439701691756,91.7826189900058,-16.37929394104728,-0.7264892290869981
OrientationDeg,1769688666142,519439709955508,91.78466121656766,-16.360857552930124,-0.7300085374177001
OrientationDeg,1769688666151,519439718228324,91.7873318205331,-16.3427780421971,-0.7317685384285949
OrientationDeg,1769688666159,519439726499258,91.79170997179108,-16.324575588059016,-0.731563419310083
OrientationDeg,1769688666167,519439734770225,91.79849234963689,-16.306516567893503,-0.7290778707824329
OrientationDeg,1769688666176,519439743041971,91.80666125588425,-16.287909425047093,-0.7254522676327727
OrientationDeg,1769688666184,519439751311939,91.81526729423842,-16.268508272709674,-0.7232850165926159
OrientationDeg,1769688666192,519439759582833,91.82278050232549,-16.24821065804369,-0.7241289718419356
OrientationDeg,1769688666200,519439767853707,91.8286203140658,-16.228119656600096,-0.7260407844793044
OrientationDeg,1769688666209,519439776124886,91.83372246537584,-16.209100994856193,-0.7286578141484772
OrientationDeg,1769688666217,519439784390175,91.83985597525049,-16.192822946516763,-0.7316037601148683
OrientationDeg,1769688666225,519439792652544,91.84853031549642,-16.18102720982015,-0.7319041283557902
OrientationDeg,1769688666233,519439800929511,91.85816088222612,-16.174938096175083,-0.7285298548232452
OrientationDeg,1769688666242,519439809210190,91.86685571303957,-16.175090067884117,-0.7225071754400278
OrientationDeg,1769688666250,519439817479446,91.87305752480592,-16.18112283246853,-0.7192415446039684
OrientationDeg,1769688666258,519439825750036,91.87630869485088,-16.192674389902315,-0.7205310629749256
OrientationDeg,1769688666267,519439834022953,91.87811186479178,-16.208407730655438,-0.7274254986118188
OrientationDeg,1769688666275,519439842291924,91.88005846870522,-16.22617817532852,-0.7379595713026825
OrientationDeg,1769688666283,519439850560355,91.8828451858866,-16.244653837033404,-0.7483649376163738
OrientationDeg,1769688666291,519439858833682,91.88490107282672,-16.262320121321643,-0.7546893726226883
OrientationDeg,1769688666300,519439867106803,91.88506499736684,-16.27783148092674,-0.754518617893438
OrientationDeg,1769688666308,519439875368510,91.88230560094212,-16.289505981765586,-0.7477326115096187
OrientationDeg,1769688666316,519439883646199,91.87735371379387,-16.29718994458185,-0.7385662308391971
OrientationDeg,1769688666324,519439891914163,91.8725862417532,-16.30062894482895,-0.7316483164270321
OrientationDeg,1769688666333,519439900188323,91.87249744929397,-16.299486595690265,-0.7246100199307455
OrientationDeg,1769688666341,519439908458230,91.87804356290007,-16.29565485956589,-0.7165460744810462
OrientationDeg,1769688666349,519439916714454,91.88593926158057,-16.291403066807558,-0.7103427152499409
OrientationDeg,1769688666358,519439925001095,91.89123265818733,-16.28989188745369,-0.7055079018129239
OrientationDeg,1769688666366,519439933275071,91.88966171467825,-16.293298444302234,-0.7011523755565714
OrientationDeg,1769688666374,519439941543858,91.88220997829376,-16.303989397900597,-0.697906221431817
OrientationDeg,1769688666382,519439949812862,91.87371322296627,-16.32400526726332,-0.6919382902836655
OrientationDeg,1769688666390,519439958084436,91.86891843016889,-16.35470355248794,-0.6800243592979005
OrientationDeg,1769688666398,519439966355432,91.87128167562173,-16.394598687429987,-0.6602074191947548
OrientationDeg,1769688666406,519439974628705,91.88147231786337,-16.441605756845306,-0.6328179870970334
OrientationDeg,1769688666415,519439982897231,91.89672413028006,-16.491399543441993,-0.600085426077658
OrientationDeg,1769688666424,519439991145723,91.91550032030841,-16.540167094115883,-0.5646865299610389
OrientationDeg,1769688666432,519439999435599,91.93644168030363,-16.584290116154165,-0.5307337663186112
OrientationDeg,1769688666440,519440007707805,91.95915205929396,-16.620939203693162,-0.49962999197287233
OrientationDeg,1769688666448,519440015984029,91.98370658936017,-16.649660149153064,-0.47040772130006037
OrientationDeg,1769688666457,519440024255239,92.00853432699313,-16.671687509226356,-0.4424983944126247
OrientationDeg,1769688666465,519440032522826,92.03292493251922,-16.689833614303787,-0.41533203736041296
OrientationDeg,1769688666473,519440040780159,92.05629100966985,-16.70819828543466,-0.3882511110336793
OrientationDeg,1769688666482,519440049064705,92.07897406790346,-16.729342843557728,-0.3600782615742428
OrientationDeg,1769688666490,519440057335315,92.10128146573277,-16.75536927939006,-0.32996582515350775
OrientationDeg,1769688666498,519440065606219,92.12479097685593,-16.785891687243556,-0.29882683264486093
OrientationDeg,1769688666506,519440073878241,92.14767211057546,-16.820242416126842,-0.27055635950506085
OrientationDeg,1769688666515,519440082148178,92.1680465648696,-16.85550156016974,-0.2451718814134291
OrientationDeg,1769688666523,519440090419122,92.18594849068421,-16.88937588335842,-0.221769772346901
OrientationDeg,1769688666531,519440098678583,92.20154181255936,-16.920016111975094,-0.2012000573518126
OrientationDeg,1769688666539,519440106957400,92.21464211538745,-16.946375519529468,-0.1860649718008726
OrientationDeg,1769688666548,519440115229983,92.22397898398287,-16.967315171977432,-0.17760658292660517
OrientationDeg,1769688666556,519440123505832,92.22932019191381,-16.982966550460517,-0.17433444206649304
OrientationDeg,1769688666563,519440131773754,92.23228449401358,-16.99239562660972,-0.1731469229658364
OrientationDeg,1769688666573,519440140045472,92.2344223432238,-16.997185296765192,-0.17335221550712024
OrientationDeg,1769688666581,519440148307526,92.23719540002685,-16.998313985525535,-0.17404338529440058
OrientationDeg,1769688666589,519440156586262,92.24082223047611,-16.997038447698035,-0.17338601960742653
OrientationDeg,1769688666597,519440164854391,92.24400509862932,-16.993469673856705,-0.17124366140514327
OrientationDeg,1769688666606,519440173128090,92.2454735893009,-16.98835727726295,-0.16984990260806399
OrientationDeg,1769688666614,519440181402261,92.24510475908568,-16.98195226736877,-0.16872644321130267
OrientationDeg,1769688666622,519440189657091,92.24436026846615,-16.97540553104931,-0.16865539323567866
OrientationDeg,1769688666629,519440197940488,92.24408706089935,-16.969936257071424,-0.17263077677603764
OrientationDeg,1769688666638,519440206208655,92.24543943835505,-16.965312219003327,-0.1784455489361796
OrientationDeg,1769688666647,519440214479498,92.24827396686055,-16.961559030054406,-0.18266400450166903
