# 
# Header Description:
# 
# Version: v3.10.5 (24099-google), Manufacturer: Google, Model: Pixel 7 Pro, GNSS HW Year: 2020, Platform: 16, API Level: 36 
# 
# Raw GNSS measurements format:
#   Raw,utcTimeMillis,TimeNanos,LeapSecond,TimeUncertaintyNanos,FullBiasNanos,BiasNanos,BiasUncertaintyNanos,DriftNanosPerSecond,DriftUncertaintyNanosPerSecond,HardwareClockDiscontinuityCount,Svid,TimeOffsetNanos,State,ReceivedSvTimeNanos,ReceivedSvTimeUncertaintyNanos,Cn0DbHz,PseudorangeRateMetersPerSecond,PseudorangeRateUncertaintyMetersPerSecond,AccumulatedDeltaRangeState,AccumulatedDeltaRangeMeters,AccumulatedDeltaRangeUncertaintyMeters,CarrierFrequencyHz,CarrierCycles,CarrierPhase,CarrierPhaseUncertainty,MultipathIndicator,SnrInDb,ConstellationType,AgcDb,BasebandCn0DbHz,FullInterSignalBiasNanos,FullInterSignalBiasUncertaintyNanos,SatelliteInterSignalBiasNanos,SatelliteInterSignalBiasUncertaintyNanos,CodeType,ChipsetElapsedRealtimeNanos
# 
# Location fix format:
#   Fix,Provider,LatitudeDegrees,LongitudeDegrees,AltitudeMeters,SpeedMps,AccuracyMeters,BearingDegrees,UnixTimeMillis,SpeedAccuracyMps,BearingAccuracyDegrees,elapsedRealtimeNanos,VerticalAccuracyMeters,MockLocation
# 
# Navigation message format:
#   Nav,Svid,Type,Status,MessageId,Sub-messageId,Data(Bytes)
# 
# NMEA format (for [NMEA sentence] format see https://en.wikipedia.org/wiki/NMEA_0183):
#   NMEA,[NMEA sentence],(UTC)TimeInMs
# 
# GnssAntennaInfo format (https://developer.android.com/reference/android/location/GnssAntennaInfo):
#   GnssAntennaInfo,CarrierFrequencyMHz,PhaseCenterOffsetXOffsetMm,PhaseCenterOffsetXOffsetUncertaintyMm,PhaseCenterOffsetYOffsetMm,PhaseCenterOffsetYOffsetUncertaintyMm,PhaseCenterOffsetZOffsetMm,PhaseCenterOffsetZOffsetUncertaintyMm,PhaseCenterVariationCorrectionsArray,PhaseCenterVariationCorrectionUncertaintiesArray,PhaseCenterVariationCorrectionsDeltaPhi,PhaseCenterVariationCorrectionsDeltaTheta,SignalGainCorrectionsArray,SignalGainCorrectionUncertaintiesArray,SignalGainCorrectionsDeltaPhi,SignalGainCorrectionsDeltaTheta
# 
# GnssStatus format (https://developer.android.com/reference/android/location/GnssStatus):
#   Status,UnixTimeMillis,SignalCount,SignalIndex,ConstellationType,Svid,CarrierFrequencyHz,Cn0DbHz,AzimuthDegrees,ElevationDegrees,UsedInFix,HasAlmanacData,HasEphemerisData,BasebandCn0DbHz
# Orientation sensor format (https://developer.android.com/reference/android/hardware/SensorEvent#values):
#   OrientationDeg,utcTimeMillis,elapsedRealtimeNanos,yawDeg,rollDeg,pitchDeg
OrientationDeg,1769688696710,519470277329442,91.72715102375611,-16.100420732330246,-1.2286573300276178
OrientationDeg,1769688696718,519470285601018,91.73294985436144,-16.082124363091072,-1.1936200604110392
OrientationDeg,1769688696726,519470293871642,91.73490328846407,-16.086422259626303,-1.1400559026708008
OrientationDeg,1769688696735,519470302140155,91.7342544204929,-16.105169421350695,-1.088852962670977
OrientationDeg,1769688696743,519470310414569,91.73064808061116,-16.131817404397502,-1.0543225144351545
OrientationDeg,1769688696751,519470318683727,91.72412524995377,-16.15919109504362,-1.0433669977281599
OrientationDeg,1769688696759,519470326955496,91.71517770214109,-16.182215662735732,-1.0554235622737018
OrientationDeg,1769688696768,519470335225846,91.7056086071139,-16.198003645002217,-1.0819595942511417
OrientationDeg,1769688696776,519470343497752,91.69698890838134,-16.206882890923232,-1.1124702627170002
OrientationDeg,1769688696783,519470351754459,91.68965328521278,-16.210186994934226,-1.1388102469209198
OrientationDeg,1769688696793,519470360026828,91.68431207728179,-16.20902927786991,-1.1543608801137464
OrientationDeg,1769688696801,519470368309533,91.68063743550834,-16.204668202084857,-1.1571471704082883
OrientationDeg,1769688696809,519470376572634,91.67957875618697,-16.19862689976398,-1.1497434587914062
OrientationDeg,1769688696816,519470384852002,91.68095845439933,-16.189435172688437,-1.1374116589666539
OrientationDeg,1769688696826,519470393124101,91.68491313392877,-16.177137417087827,-1.124150419806251
OrientationDeg,1769688696834,519470401393641,91.69140181364025,-16.162978434938392,-1.11441974811651
OrientationDeg,1769688696842,519470409674092,91.69780853108176,-16.14784785837952,-1.1124969431434457
OrientationDeg,1769688696850,519470417935908,91.70445430514417,-16.134049168708803,-1.1183664235180137
OrientationDeg,1769688696859,519470426209415,91.70869585261875,-16.12411636610831,-1.1283380728194092
OrientationDeg,1769688696867,519470434477944,91.70950181494084,-16.1193591393514,-1.1372594738142094
OrientationDeg,1769688696875,519470442750928,91.70760302235158,-16.12048612056445,-1.143577078631354
OrientationDeg,1769688696884,519470451006944,91.7030131352293,-16.12749730974747,-1.1474185264309573
OrientationDeg,1769688696892,519470459291785,91.69717332348893,-16.138355602980496,-1.1478549114858976
OrientationDeg,1769688696900,519470467561132,91.69086905888503,-16.151131471823003,-1.1464931425201264
OrientationDeg,1769688696908,519470475832413,91.68531611508979,-16.162659123594693,-1.145040553382735
OrientationDeg,1769688696917,519470484104039,91.68078086948088,-16.17110294495612,-1.1461795941485404
OrientationDeg,1769688696925,519470492377308,91.67669641635723,-16.174137256494898,-1.1489765566136605
OrientationDeg,1769688696933,519470500644144,91.67492739736218,-16.17146323743484,-1.1526793729174538
OrientationDeg,1769688696941,519470508919142,91.6743604916611,-16.16376219914565,-1.1578863249425306
OrientationDeg,1769688696950,519470517189612,91.67515279360481,-16.152297726623782,-1.1622376890523578
OrientationDeg,1769688696958,519470525459719,91.6774067560309,-16.138825178485934,-1.1647135259047816
OrientationDeg,1769688696966,519470533728781,91.67854056743317,-16.12493428126142,-1.1649225937264074
OrientationDeg,1769688696975,519470542001984,91.67929188824183,-16.112059374675948,-1.1630806838063255
OrientationDeg,1769688696983,519470550271027,91.67989294488882,-16.101341100320905,-1.161945058135105
OrientationDeg,1769688696991,519470558543792,91.67942849202524,-16.09337709974867,-1.1643390394391944
OrientationDeg,1769688696999,519470566815275,91.67751603905765,-16.088484976755648,-1.1686358687573672
OrientationDeg,1769688697008,519470575073713,91.6755352841983,-16.086984042685536,-1.172542950406026
OrientationDeg,1769688697016,519470583355969,91.67330181233973,-16.087144552131033,-1.1774017762268438
OrientationDeg,1769688697024,519470591616639,91.67015992532151,-16.08937973153692,-1.1838053987388482
OrientationDeg,1769688697032,519470599885407,91.66721611378927,-16.09161149584822,-1.1913812524671559
OrientationDeg,1769688697041,519470608169836,91.66398543431183,-16.09345906201871,-1.1977250041022167
OrientationDeg,1769688697049,519470616444503,91.66147875488645,-16.093279769552996,-1.2011635774624951
OrientationDeg,1769688697057,519470624712224,91.6597097358914,-16.090296684432992,-1.203343475024787
OrientationDeg,1769688697065,519470632982023,91.65820026408483,-16.083529674512803,-1.2057073608078461
OrientationDeg,1769688697074,519470641255037,91.65854860373253,-16.072726022793134,-1.2084262029843342
OrientationDeg,1769688697082,519470649523893,91.65999660383659,-16.057795229267487,-1.2094934200421488
OrientationDeg,1769688697090,519470657782767,91.66473675512054,-16.04036117141103,-1.2108375799264661
OrientationDeg,1769688697099,519470666064388,91.66934030262115,-16.02149277382887,-1.2116435422485277
OrientationDeg,1769688697107,519470674337138,91.67419656712104,-16.002935149853943,-1.2127853577786833
OrientationDeg,1769688697115,519470682608118,91.67812392589377,-15.986122639211958,-1.2149804098231962
OrientationDeg,1769688697122,519470690880970,91.67832200137968,-15.972059279710903,-1.2182749088806695
NMEA,$GPGGA,121136.24,4011.325321,N,00340.606453,W,1,07,35.6,662.2,M,51.6,M,,*4E,1769688697126
NMEA,$PGLOR,12,STA,121136.24,0.457,0.500,-2353,98,355,0,P,D,L,1,C,2,S,00000002,0,3,R,00000000,TPEF,34,33105,LC,,,DR,0,,*00,1769688697126
NMEA,$PGLOR,1,UNC,121136.24,201691.453,356.0,190.8,6.72,48.81,377.0,377.0,90.0*1D,1769688697126
OrientationDeg,1769688697132,519470699148039,91.67656664276302,-15.961059260052597,-1.2211256590855035
NMEA,$PGLOR,2,SAT,5,1,G29,13,20,G28,18,201A7,B26,,20027,R16,19,27,R09,18,27,B29,,20027*7B,1769688697126
NMEA,$PGLOR,2,SAT,5,2,G31,17,27,G11,,20027,E02,,20,G25,,20,B45,,20,B35,,20*03,1769688697126
NMEA,$PGLOR,2,SAT,5,3,R18,,20,R19,,20,E08,,20,E30,,20,E07,,20,E36,,20*3C,1769688697126
NMEA,$PGLOR,2,SAT,5,4,E25,,20,R07,,20,E11,,20,G26,,20,R08,,20,R17,,20*2C,1769688697126
NMEA,$PGLOR,2,SAT,5,5,G18,,20,B44,,20,E03,,20,B24,,20,B14,,20,B42,,20*3F,1769688697126
NMEA,$PGLOR,2,SVC,GPS,0,2,1,07,011,FFTU,FFNU,028,FFTU,FFNU,029,FFTU,FFNU,031,CLIN,CLIN*77,1769688697126
OrientationDeg,1769688697140,519470707421715,91.67264611417943,-15.954304202963455,-1.2229132476573428
NMEA,$PGLOR,2,SVC,GPS,0,2,2,07,018,CLIN,CLIN,025,CLIN,CLIN,026,CLIN,CLIN*7B,1769688697126
NMEA,$PGLOR,2,SVC,GPS,2,1,1,02,011,VETM,VETM,028,VETM,VETM*60,1769688697126
NMEA,$PGLOR,2,SVC,GLO,0,2,1,07,056,FFTU,FFNU,057,FFTU,FFNU,058,CLIN,CLIN,062,CLIN,CLIN*66,1769688697126
NMEA,$PGLOR,2,SVC,GLO,0,2,2,07,063,CLIN,CLIN,064,CLIN,CLIN,065,CLIN,CLIN*75,1769688697126
NMEA,$PGLOR,2,SVC,BDS,0,2,1,08,101,FFTU,FFNU,104,FFTU,FFNU,110,CLIN,CLIN,120,CLIN,CLIN*76,1769688697126
Raw,519470718,33105000000,,,-1453723881136077995,0.0,201694863.28310817,,,19,11,0.0,17,711469,106,17.159360885620117,-424.7460705838721,1.3563877765832242,16,-1973.7225792423035,340282346638528860000000000000000000000,1575420000,,,,0,,1,30.70265007019043,13.249361038208008,8.643837301404483,1.0,8.643837301404483,1.0,C,519470718438411
Raw,519470718,33105000000,,,-1453723881136077995,0.0,201694863.28310817,,,19,28,0.0,51,10241962,71,22.018754959106445,-988.205557938365,1.1361630518189143,16,-21317.60748337616,340282346638528860000000000000000000000,1575420000,,,,2,,1,30.70265007019043,18.108755111694336,8.963979953864575,1.0,8.963979953864575,1.0,C,519470718775813
Raw,519470718,33105000000,,,-1453723881136077995,0.0,201694863.28310817,,,19,29,0.0,16,12209243,1000000000,16.988922119140625,-698.8438661017917,299792458,16,-11689.068895856955,340282346638528860000000000000000000000,1575420000,,,,1,,1,30.70265007019043,13.078922271728516,8.818460638680785,1.0,8.818460638680785,1.0,C,519470718924821
Raw,519470719,33105000000,,,-1453723881136077995,0.0,201694863.28310817,,,19,31,0.0,51,4770478,77,21.156885147094727,-1272.5752605329553,1.173936132471681,16,-27472.479279080882,340282346638528860000000000000000000000,1575420000,,,,1,,1,30.70265007019043,17.246885299682617,13.242242571428047,1.0,13.242242571428047,1.0,C,519470719058813
Raw,519470719,33105000000,,,-1453723881136077995,0.0,201694863.28310817,,,19,11,0.0,16,19711468,1000000000,10.760000228881836,-424.19253740748513,299792458,16,-2401.719113521196,340282346638528860000000000000000000000,1176450000,,,,0,,1,26.464778900146484,7.0,10.768559749319673,11.00692285594456,10.768559749319673,1.0,Q,519470719160416
Raw,519470719,33105000000,,,-1453723881136077995,0.0,201694863.28310817,,,19,28,0.0,65553,10241957,35,17.039461135864258,-988.2799940234108,1.3533310062638346,16,-33885.67990371885,340282346638528860000000000000000000000,1176450000,,,,2,,1,26.464778900146484,13.279460906982422,9.3132258331384,11.00692285594456,9.3132258331384,1.0,Q,519470719278865
Raw,519470719,33105000000,,,-1453723881136077995,0.0,201694863.28310817,,,19,9,0.0,49,2279813,147,21.683958053588867,-1086.6622766923292,1.1515849639916986,16,-29164.165334589692,340282346638528860000000000000000000000,1600875000,,,,2,,3,47.244014739990234,17.773958206176758,5.47151994335567,2.0000000474974513,5.47151994335567,2.0000000474974513,C,519470719413102
Raw,519470719,33105000000,,,-1453723881136077995,0.0,201694863.28310817,,,19,16,0.0,17,565823,138,22.4849853515625,-490.1807062023636,1.1138164099151888,16,-10554.204445759171,340282346638528860000000000000000000000,1601437400,,,,2,,3,47.244014739990234,18.57498550415039,16.88022264269459,2.0000000474974513,16.88022264269459,2.0000000474974513,C,519470719540421
Raw,519470719,33105000000,,,-1453723881136077995,0.0,201694863.28310817,,,19,26,0.0,65587,5148307,31,23.812807083129883,-1002.8922337733484,1.0545702500089873,16,-17108.034583991503,340282346638528860000000000000000000000,1561098000,,,,2,,5,45.616275787353516,19.902807235717773,16.01393634224663,4.8356409757302465,16.01393634224663,1.5000000237487257,I,519470719674617
Raw,519470719,33105000000,,,-1453723881136077995,0.0,201694863.28310817,,,19,29,0.0,65587,4318432,37,21.382219314575195,-456.05309042466047,1.1637217800133097,16,-4907.496865445983,340282346638528860000000000000000000000,1561098000,,,,2,,5,45.616275787353516,17.472219467163086,11.5139364324444,4.8356409757302465,11.5139364324444,1.5000000237487257,I,519470719878230
Raw,519470720,33105000000,,,-1453723881136077995,0.0,201694863.28310817,,,19,26,0.0,48,4978007,1000000000,10.760000228881836,0.0025099189270589503,299792458,16,0.08309077623937053,340282346638528860000000000000000000000,1176450000,,,,0,,5,26.464778900146484,7.0,20.867446764054947,11.506922879693287,20.867446764054947,1.5000000237487257,P,519470720054500
Raw,519470720,33105000000,,,-1453723881136077995,0.0,201694863.28310817,,,19,29,0.0,48,4978008,1000000000,10.760000228881836,-0.5500094031891838,299792458,16,0.5611039069208711,340282346638528860000000000000000000000,1176450000,,,,1,,5,26.464778900146484,7.0,20.459992840596094,11.506922879693287,20.459992840596094,1.5000000237487257,P,519470720184708
NMEA,$PGLOR,2,SVC,BDS,0,2,2,08,089,CLIN,CLIN,099,CLIN,CLIN,117,CLIN,CLIN,119,CLIN,CLIN*7C,1769688697126
OrientationDeg,1769688697148,519470715692289,91.66811769875972,-15.951054740465821,-1.2242479093098457
NMEA,$PGLOR,2,SVC,BDS,2,1,1,02,101,VETM,VETM,104,VETM,VETM*7E,1769688697126
NMEA,$PGLOR,2,SVC,GAL,0,2,1,08,140,CLIN,CLIN,145,CLIN,CLIN,146,CLIN,CLIN,168,CLIN,CLIN*66,1769688697126
NMEA,$PGLOR,2,SVC,GAL,0,2,2,08,141,CLIN,CLIN,149,CLIN,CLIN,163,CLIN,CLIN,174,CLIN,CLIN*62,1769688697126
NMEA,$PGLOR,2,SIO,TxERR,0,RxERR,0,TxCNT,288,RxCNT,4416,MLFRMPKT,0,DTMS,999,DTIN,21,26,DTOUT,22,975,HATMD,27*20,1769688697126
NMEA,$PGLOR,2,HLA,121136.24,L,,Al,,A,,H,,,M,,Ac,0,Gr,0,S,,,Sx,,,T,,Tr,,Mn,,Ap,,Ta,0,,,Aa,1,Ga,1,*1A,1769688697126
NMEA,$PGLOR,1,LSQ,121136.24,,,,,,,,,,,,,,,,00,,*3B,1769688697126
NMEA,$PGLOR,6,PWR,mA,42.3,RFTm,999,OscTm,999,MeasTm,999,UTC,121136.24,GNSSmA,41.1,CPUTm,463,COPTm,40,COPMargTm,170,Srch*00,1769688697126
NMEA,$PGLOR,3,AGC,G,28.9,R,47.6,B,47.2,E5A,23.9,AL1,20.0,AL5,21.0,LTE,,PM1,,PM5,*05,1769688697126
NMEA,$PSSGR,GSA,A,3,11,28,31,,,,,,,,,,10.4,9.2,4.9,1,1*77,1769688697126
NMEA,$PSSGR,GSA,A,3,,,,,,,,,,,,,10.4,9.2,4.9,1,8*76,1769688697126
NMEA,$PSSGR,GSA,A,3,,,,,,,,,,,,,10.4,9.2,4.9,1,9*77,1769688697126
OrientationDeg,1769688697156,519470723965884,91.66382150977176,-15.949926051705477,-1.2240730991557756
NMEA,$PSSGR,GSA,A,3,73,80,,,,,,,,,,,10.4,9.2,4.9,2,1*70,1769688697126
NMEA,$PSSGR,GSA,A,3,,,,,,,,,,,,,10.4,9.2,4.9,3,7*7B,1769688697126
NMEA,$PSSGR,GSA,A,3,226,229,,,,,,,,,,,10.4,9.2,4.9,4,1*75,1769688697126
NMEA,$PSSGR,GSA,A,3,,,,,,,,,,,,,10.4,9.2,4.9,3,1*7D,1769688697126
OrientationDeg,1769688697165,519470732234121,91.6594706792705,-15.950593702696844,-1.2222396202504504
NMEA,$GPGSV,3,1,09,29,84,100,19,28,62,304,24,31,30,312,22,11,18,048,18*7E,1769688697126
NMEA,$PSSGR,GSA,A,3,,,,,,,,,,,,,10.4,9.2,4.9,6,1*78,1769688697126
NMEA,$PSSGR,GSA,A,3,,,,,,,,,,,,,10.4,9.2,4.9,5,9*73,1769688697126
NMEA,$PSSGR,GSA,A,3,,,,,,,,,,,,,10.4,9.2,4.9,4,5*7E,1769688697126
NMEA,$PSSGR,GSA,A,3,,,,,,,,,,,,,10.4,9.2,4.9,5,8*72,1769688697126
NMEA,$GPGSV,3,2,09,25,57,062,,26,20,285,,18,13,167,*42,1769688697126
NMEA,$GPGSV,3,3,09,28,,,19,11,,,,8*66,1769688697126
NMEA,$PSSGR,GSA,A,3,,,,,,,,,,,,,10.4,9.2,4.9,5,1*7B,1769688697126
NMEA,$PSSGR,GSA,A,3,,,,,,,,,,,,,10.4,9.2,4.9,4,3*78,1769688697126
NMEA,$GLGSV,2,1,07,80,50,067,22,73,48,327,22,82,51,062,,83,45,153,*64,1769688697126
NMEA,$GLGSV,2,2,07,71,23,271,,72,15,323,,81,14,027,*5B,1769688697126
NMEA,$BDGSV,3,1,10,226,58,314,24,229,47,063,22,245,56,096,,235,53,170,*64,1769688697126
NMEA,$BDGSV,3,2,10,244,13,200,,224,12,299,,214,11,291,,242,11,265,*67,1769688697126
NMEA,$GAGSV,2,1,08,102,70,013,,108,41,233,,130,38,280,,107,31,299,*6E,1769688697126
NMEA,$GAGSV,2,2,08,136,31,112,,125,26,072,,111,23,057,,103,13,185,*6D,1769688697126
NMEA,$GPGSA,A,3,11,28,31,,,,,,,,,,10.4,9.2,4.9*09,1769688697126
NMEA,$GPGSA,A,3,,,,,,,,,,,,,10.4,9.2,4.9,8*15,1769688697126
OrientationDeg,1769688697173,519470740488903,91.6567317734133,-15.95207756129403,-1.2218117729319724
NMEA,$QZGSA,A,3,,,,,,,,,,,,,10.4,9.2,4.9*1D,1769688697126
NMEA,$GPGSA,A,3,,,,,,,,,,,,,10.4,9.2,4.9,9*14,1769688697126
NMEA,$BDGSV,3,3,10,226,,,,229,,,,5*7F,1769688697126
NMEA,$QZGSA,A,3,,,,,,,,,,,,,10.4,9.2,4.9,8*09,1769688697126
NMEA,$QZGSA,A,3,,,,,,,,,,,,,10.4,9.2,4.9,9*08,1769688697126
NMEA,$BDGSA,A,3,226,229,,,,,,,,,,,10.4,9.2,4.9*1F,1769688697126
NMEA,$BDGSA,A,3,,,,,,,,,,,,,10.4,9.2,4.9,5*09,1769688697126
NMEA,$BDGSA,A,3,,,,,,,,,,,,,10.4,9.2,4.9,3*0F,1769688697126
NMEA,$GAGSA,A,3,,,,,,,,,,,,,10.4,9.2,4.9*10,1769688697126
NMEA,$GAGSA,A,3,,,,,,,,,,,,,10.4,9.2,4.9,1*0D,1769688697126
NMEA,$NCGSA,A,3,,,,,,,,,,,,,10.4,9.2,4.9,1*06,1769688697126
OrientationDeg,1769688697181,519470748776219,91.65364452790845,-15.953604108573527,-1.2240911351240527
NMEA,$GNGSA,A,3,11,28,31,,,,,,,,,,10.4,9.2,4.9*17,1769688697126
NMEA,$GNGSA,A,3,73,80,,,,,,,,,,,10.4,9.2,4.9*13,1769688697126
NMEA,$PGLOR,1,FIX,3.0,3.0*20,1769688697126
NMEA,$GPRMC,121136.24,A,4011.325321,N,00340.606453,W,000.0,,290126,,,A*69,1769688697126
NMEA,$PGLOR,SPL,39260229131137.1,POS,20260129121136.241,40.188755,-3.676774,356,356,0,714,191,3.100000*70,1769688697130
Status,1769688693241,9,0,1,29,1575420032,18.639053,100.0,84.0,0,1,1,14.729053
Status,1769688693241,9,1,1,28,1575420032,24.49536,304.0,62.0,1,1,1,20.58536
Status,1769688693241,9,2,1,28,1176450048,19.495258,304.0,62.0,0,1,1,15.735259
Status,1769688693241,9,3,5,26,1561097984,24.383057,314.0,58.0,1,1,1,20.473057
Status,1769688693241,9,4,3,16,1601437440,22.484985,67.0,50.0,1,1,1,18.574986
Status,1769688693241,9,5,3,9,1600875008,22.18399,327.0,48.0,1,1,1,18.27399
Status,1769688693241,9,6,5,29,1561097984,22.41152,63.0,47.0,1,1,1,18.50152
Status,1769688693241,9,7,1,31,1575420032,22.194567,312.0,30.0,1,1,1,18.284567
Status,1769688693241,9,8,1,11,1575420032,17.792355,48.0,18.0,1,1,1,13.882354
OrientationDeg,1769688697189,519470757047204,91.65130860321233,-15.954370797307861,-1.2265552325888405
OrientationDeg,1769688697198,519470765317982,91.6502840748368,-15.954309325605331,-1.227636643633524
OrientationDeg,1769688697206,519470773590798,91.64996305594582,-15.954292250132406,-1.2273034584680744
Fix,gps,40.18875535396101,-3.676774232293729,713.7835060531908,0.0,355.96686,0.0,1769688696241,6.7192483,,519470598158138,190.76004,0
OrientationDeg,1769688697214,519470781847134,91.65040018805269,-15.955636089851607,-1.2277842397526197
OrientationDeg,1769688697223,519470790131869,91.65076901826785,-15.957710759811999,-1.2280873293970391
OrientationDeg,1769688697230,519470798389069,91.65081682959203,-15.962300646934247,-1.2281892486260604
OrientationDeg,1769688697270,519470837689746,91.65444366004135,-16.00435582920131,-1.2136423330761084
OrientationDeg,1769688697278,519470845959419,91.65789973576136,-16.014927254489194,-1.2099004566279992
OrientationDeg,1769688697287,519470854233681,91.65841199994912,-16.025227179757575,-1.2078661274723932
OrientationDeg,1769688697295,519470862510759,91.66084354729367,-16.034319869090154,-1.2058090665934558
OrientationDeg,1769688697303,519470870787064,91.66220958512764,-16.04284223762704,-1.2023046459407103
OrientationDeg,1769688697312,519470879053127,91.66358928334,-16.050813068388443,-1.198410050731628
OrientationDeg,1769688697320,519470887328292,91.66574762311768,-16.058273342509388,-1.1956682633883966
OrientationDeg,1769688697328,519470895573216,91.66710000057338,-16.064676644856274,-1.19378270429065
OrientationDeg,1769688697336,519470903854150,91.6681586798947,-16.07030130563778,-1.192367040863459
OrientationDeg,1769688697344,519470912114230,91.66865045351494,-16.074558221037993,-1.1921659771697668
OrientationDeg,1769688697352,519470920379346,91.66900562335184,-16.077814513724796,-1.1924148521876492
OrientationDeg,1769688697361,519470928669649,91.66802207611136,-16.080775400729994,-1.1912309883054155
OrientationDeg,1769688697369,519470936938213,91.66647845335888,-16.082950815980645,-1.1899295171034108
OrientationDeg,1769688697378,519470945211335,91.66367807579923,-16.083799466985017,-1.1903177706690438
OrientationDeg,1769688697386,519470953489329,91.66115090580627,-16.08384215566733,-1.190386392725861
OrientationDeg,1769688697394,519470961753427,91.66151973602149,-16.082506853684595,-1.1897171409089058
OrientationDeg,1769688697403,519470970022257,91.66267403799122,-16.080896636587763,-1.1881479049470953
OrientationDeg,1769688697411,519470978282266,91.66533098157834,-16.079062730795616,-1.184592578040692
OrientationDeg,1769688697419,519470986566017,91.66840456670485,-16.076397249472016,-1.1804620211401269
OrientationDeg,1769688697427,519470994831072,91.67139618956128,-16.072877994502168,-1.175867865149647
OrientationDeg,1769688697436,519471003108110,91.67367064255495,-16.06834274889328,-1.1723592823503761
OrientationDeg,1769688697444,519471011382787,91.67437415203943,-16.063182540975337,-1.1697695734378835
OrientationDeg,1769688697452,519471019648860,91.67434683128272,-16.05746396509274,-1.1673001398878065
OrientationDeg,1769688697460,519471027921767,91.67417607655352,-16.050445945720554,-1.1638059645188161
OrientationDeg,1769688697469,519471036196954,91.67746822773347,-16.043175209349076,-1.1610694065391682
OrientationDeg,1769688697477,519471044463891,91.67798732211037,-16.0354024540736,-1.1606581010850865
OrientationDeg,1769688697485,519471052734154,91.67849958629813,-16.027498217656603,-1.1619590386785623
OrientationDeg,1769688697493,519471060992260,91.68463992636197,-16.019568368030217,-1.1652658107322005
OrientationDeg,1769688697502,519471069277651,91.68360173760811,-16.011520697640652,-1.1700873906777007
OrientationDeg,1769688697510,519471077534740,91.6816756242622,-16.003720621608498,-1.1747233815768467
OrientationDeg,1769688697518,519471085818756,91.67796000135371,-15.99576174367814,-1.1786705905868795
OrientationDeg,1769688697527,519471094089518,91.67360917085239,-15.987977035571618,-1.1828779871156074
OrientationDeg,1769688697535,519471102350809,91.66946324602623,-15.98005230858711,-1.1879813123643705
OrientationDeg,1769688697543,519471110631774,91.66444305698622,-15.97140870419246,-1.1923810214069164
OrientationDeg,1769688697551,519471118902586,91.66167683037236,-15.961031939295918,-1.1950202491908917
OrientationDeg,1769688697560,519471127191119,91.65906769810942,-15.949128627119878,-1.1966839338623187
OrientationDeg,1769688697568,519471135462786,91.65910867924447,-15.93664645641168,-1.1982648024900593
OrientationDeg,1769688697576,519471143699774,91.65937505662208,-15.92313292713881,-1.200437016089535
OrientationDeg,1769688697584,519471151983190,91.65973022645892,-15.909359850677477,-1.202007319268403
OrientationDeg,1769688697593,519471160257859,91.65947750945963,-15.896206613883326,-1.2029843564848324
OrientationDeg,1769688697601,519471168526381,91.65710060362846,-15.885034131948478,-1.2048504922321268
OrientationDeg,1769688697609,519471176794030,91.65455977325723,-15.876129272818073,-1.2083387979072993
OrientationDeg,1769688697617,519471185071832,91.65106271640218,-15.869848913876247,-1.2120529267119051
OrientationDeg,1769688697626,519471193347475,91.64865848981435,-15.86631087588618,-1.2157142282721494
OrientationDeg,1769688697634,519471201610353,91.64732660292617,-15.865441734314295,-1.218902219067253
OrientationDeg,1769688697642,519471209883486,91.64607667830808,-15.865726894712145,-1.2213117817403865
OrientationDeg,1769688697651,519471218157990,91.64436913101554,-15.86672751742555,-1.2227994823189798
OrientationDeg,1769688697659,519471226425872,91.64156192326669,-15.867608611828482,-1.2236864464157295
OrientationDeg,1769688697667,519471234694518,91.63753894184555,-15.867314913694171,-1.224787280810865
OrientationDeg,1769688697675,519471242984679,91.6341716585847,-15.865728602259436,-1.226741461965429
OrientationDeg,1769688697683,519471251254463,91.63202014899616,-15.863098979428981,-1.229004389014819
OrientationDeg,1769688697692,519471259523598,91.63137811121419,-15.858954762150077,-1.2304740536251353
OrientationDeg,1769688697700,519471267799375,91.63194501691532,-15.853927742920947,-1.2298077900159419
OrientationDeg,1769688697709,519471276049119,91.63422630009808,-15.848934874637667,-1.227372507411715
OrientationDeg,1769688697717,519471284336645,91.63668516819928,-15.844831638493783,-1.2238154729580193
OrientationDeg,1769688697725,519471292607487,91.63977241370412,-15.841935638285698,-1.2210558630899224
OrientationDeg,1769688697733,519471300863326,91.64324214980252,-15.841273109936205,-1.2202804231757145
OrientationDeg,1769688697742,519471309149510,91.64568735752539,-15.842482053419298,-1.2209890553021032
OrientationDeg,1769688697750,519471317415948,91.64840577281507,-15.845330242303193,-1.2224407906658483
OrientationDeg,1769688697758,519471325662122,91.65045482956606,-15.849416402974153,-1.224753129865015
OrientationDeg,1769688697765,519471333963289,91.65253120707371,-15.854241931622768,-1.2258930244044668
OrientationDeg,1769688697775,519471342216940,91.6539928675561,-15.85891548856235,-1.2270639749603007
OrientationDeg,1769688697782,519471350491934,91.6536855090435,-15.862668677511271,-1.2290656472739376
OrientationDeg,1769688697791,519471358758942,91.65475101855395,-15.864745055018954,-1.2332473238715722
OrientationDeg,1769688697800,519471367049590,91.65356256563842,-15.864685290863717,-1.2385853301513488
OrientationDeg,1769688697808,519471375317698,91.65227165988529,-15.861007233995664,-1.243674461413243
OrientationDeg,1769688697816,519471383586231,91.6512198107531,-15.85379967687401,-1.2484656256725952
OrientationDeg,1769688697824,519471391869464,91.65117199942893,-15.843154827052544,-1.253512922025823
OrientationDeg,1769688697833,519471400132190,91.6512198107531,-15.829537137394832,-1.2595876282406089
OrientationDeg,1769688697841,519471408401832,91.65002452764833,-15.813755985317517,-1.266602339239918
OrientationDeg,1769688697849,519471416672613,91.64915026343459,-15.795664521753446,-1.2739866275063478
OrientationDeg,1769688697857,519471424936844,91.64681433873841,-15.776150671294719,-1.2820566027324238
OrientationDeg,1769688697866,519471433223587,91.64410958382712,-15.75592477361502,-1.2898344806497757
OrientationDeg,1769688697873,519471441485427,91.64302358374908,-15.735490555165633,-1.2980657123732873
OrientationDeg,1769688697882,519471449760289,91.64272305542556,-15.7149077801018,-1.3053030448508562
OrientationDeg,1769688697891,519471458010878,91.64462867820401,-15.695189023967973,-1.3116759315115956
OrientationDeg,1769688697899,519471466267041,91.64822135770748,-15.676522116966328,-1.3194434574234868
OrientationDeg,1769688697907,519471474566133,91.65298199955896,-15.658758502482417,-1.3285341190436564
OrientationDeg,1769688697915,519471482867575,91.65803633954476,-15.641442265389143,-1.3366696213970821
OrientationDeg,1769688697924,519471491095662,91.6634458493674,-15.62392283016806,-1.3428776230223889
OrientationDeg,1769688697932,519471499366964,91.6692310195944,-15.606639036473343,-1.348556711873843
OrientationDeg,1769688697940,519471507633544,91.67412143504015,-15.590048506979382,-1.3541335613311585
OrientationDeg,1769688697947,519471515910856,91.68048717134661,-15.575220166291285,-1.3603259815874214
OrientationDeg,1769688697957,519471524181812,91.684721888632,-15.562777269170814,-1.3674133700683673
OrientationDeg,1769688697965,519471532453793,91.68833505870293,-15.553474551521257,-1.3743738664411391
OrientationDeg,1769688697972,519471540723956,91.69403143647071,-15.546956843505772,-1.3814025579839055
OrientationDeg,1769688697981,519471548993313,91.69541113468307,-15.54278701301748,-1.3885179075517662
OrientationDeg,1769688697990,519471557252853,91.70161294644947,-15.540485239267184,-1.395594196975311
OrientationDeg,1769688697998,519471565537196,91.70131924831514,-15.538198833442523,-1.4020603584069031
OrientationDeg,1769688698005,519471573808283,91.7007660029924,-15.533807021806204,-1.4077587638871036
OrientationDeg,1769688698015,519471582079879,91.70499389008859,-15.526397974104032,-1.4115856975347207
OrientationDeg,1769688698023,519471590350213,91.70523977689874,-15.515520897850788,-1.4146245981068475
OrientationDeg,1769688698031,519471598622500,91.70986381496681,-15.501532670430601,-1.4184047876473322
OrientationDeg,1769688698039,519471606902691,91.71049902255965,-15.485454405124392,-1.4238797178756264
OrientationDeg,1769688698048,519471615176881,91.71236366420305,-15.468341366158924,-1.4302090620804067
OrientationDeg,1769688698055,519471623451010,91.71370238128037,-15.450926091322685,-1.4367271969827144
OrientationDeg,1769688698063,519471631697530,91.71497962665518,-15.434291165599118,-1.4439520430207071
OrientationDeg,1769688698072,519471639972747,91.7163183437325,-15.419170834324003,-1.4512271549821227
OrientationDeg,1769688698081,519471648246388,91.71632517392163,-15.405298720119706,-1.4578333352917001
OrientationDeg,1769688698089,519471656518390,91.71601098521984,-15.392405030514015,-1.462684370427996
OrientationDeg,1769688698097,519471664790444,91.71574460784223,-15.380768095715606,-1.4668251726123163
OrientationDeg,1769688698106,519471673042732,91.71575143803136,-15.369713434543941,-1.4712118616067569
OrientationDeg,1769688698114,519471681331294,91.72438479714225,-15.359474980978092,-1.4770733378533913
OrientationDeg,1769688698122,519471689585792,91.72428917449389,-15.349315074587697,-1.4832040729637126
NMEA,$GPGGA,121137.24,,,,,0,00,999.9,,M,,M,,*67,1769688698126
NMEA,$PGLOR,12,STA,121137.24,-0.001,0.202,-2353,98,9999,0,P,D,L,1,C,2,S,00000000,0,3,R,00000000,TPEF,34,34105,LC,,,DR,0*00,1769688698126
NMEA,$PGLOR,1,UNC,121137.24,201691.453,9999.0,9999.0,0.00,0.00,10588.6,10588.6,90.0*2A,1769688698126
NMEA,$PGLOR,2,SAT,5,1,G29,14,23,G28,18,201A3,B26,,20023,R16,19,23,R09,19,23,B29,,20023*7A,1769688698126
NMEA,$PGLOR,2,SAT,5,2,G31,14,23,G11,,20023,E02,,20,G25,,20,B45,,20,B35,,20*00,1769688698126
NMEA,$PGLOR,2,SAT,5,3,R18,,20,R19,,20,E08,,20,E30,,20,E07,,20,E36,,20*3C,1769688698126
NMEA,$PGLOR,2,SAT,5,5,G18,,20,B44,,20,E03,,20,B24,,20,B14,,20,B42,,20*3F,1769688698126
NMEA,$PGLOR,2,SAT,5,4,E25,,20,R07,,20,E11,,20,G26,,20,R08,,20,R17,,20*2C,1769688698126
NMEA,$PGLOR,2,SVC,GPS,0,2,1,07,011,CLIN,CLIN,028,FFUS,FFUS,029,FFUS,FFUS,031,FFUS,FFUS*6D,1769688698126
NMEA,$PGLOR,2,SVC,GPS,0,2,2,07,018,CLIN,CLIN,025,CLIN,CLIN,026,CLIN,CLIN*7B,1769688698126
NMEA,$PGLOR,2,SVC,GPS,2,1,1,02,011,VETM,VETM,028,VETM,VETM*60,1769688698127
NMEA,$PGLOR,2,SVC,GLO,0,2,1,07,056,FFUS,FFUS,057,FFUS,FFUS,058,CLIN,CLIN,062,CLIN,CLIN*66,1769688698127
NMEA,$PGLOR,2,SVC,GLO,0,2,2,07,063,CLIN,CLIN,064,CLIN,CLIN,065,CLIN,CLIN*75,1769688698127
OrientationDeg,1769688698130,519471697859085,91.72400913673789,-15.339066375738094,-1.490239487973943
NMEA,$PGLOR,2,SVC,BDS,0,2,1,08,101,FFUS,FFUS,104,FFUS,FFUS,110,CLIN,CLIN,120,CLIN,CLIN*76,1769688698127
NMEA,$PGLOR,2,SVC,BDS,0,2,2,08,089,CLIN,CLIN,099,CLIN,CLIN,117,CLIN,CLIN,119,CLIN,CLIN*7C,1769688698127
NMEA,$PGLOR,2,SVC,BDS,2,1,1,02,101,VETM,VETM,104,VETM,VETM*7E,1769688698127
NMEA,$PGLOR,2,SVC,GAL,0,2,2,08,141,CLIN,CLIN,149,CLIN,CLIN,163,CLIN,CLIN,174,CLIN,CLIN*62,1769688698128
NMEA,$PGLOR,2,SIO,TxERR,0,RxERR,0,TxCNT,954,RxCNT,4576,MLFRMPKT,0,DTMS,998,DTIN,15,21,DTOUT,17,976,HATMD,25*2B,1769688698128
NMEA,$PGLOR,2,HLA,121137.24,L,,Al,,A,,H,,,M,,Ac,0,Gr,0,S,,,Sx,,,T,,Tr,,Mn,,Ap,,Ta,0,,,Aa,1,Ga,1,*1B,1769688698128
NMEA,$PGLOR,2,SVC,GAL,0,2,1,08,140,CLIN,CLIN,145,CLIN,CLIN,146,CLIN,CLIN,168,CLIN,CLIN*66,1769688698127
NMEA,$PGLOR,1,LSQ,121137.24,,,,,,,,,,,,,,,,00,,*3A,1769688698128
NMEA,$PGLOR,6,PWR,mA,41.7,RFTm,1001,OscTm,1001,MeasTm,1001,UTC,121137.24,GNSSmA,40.5,CPUTm,468,COPTm,46,COPMargTm,170,S*00,1769688698128
NMEA,$PGLOR,3,AGC,G,28.2,R,48.1,B,49.5,E5A,22.7,AL1,21.6,AL5,21.0,LTE,,PM1,,PM5,*07,1769688698128
NMEA,$PSSGR,GSA,A,1,,,,,,,,,,,,,140.0,99.0,99.0,1,1*4B,1769688698128
NMEA,$PSSGR,GSA,A,1,,,,,,,,,,,,,140.0,99.0,99.0,1,9*43,1769688698128
NMEA,$PSSGR,GSA,A,1,,,,,,,,,,,,,140.0,99.0,99.0,1,8*42,1769688698128
NMEA,$PSSGR,GSA,A,1,,,,,,,,,,,,,140.0,99.0,99.0,2,1*48,1769688698128
NMEA,$PSSGR,GSA,A,1,,,,,,,,,,,,,140.0,99.0,99.0,5,1*4F,1769688698128
NMEA,$PSSGR,GSA,A,1,,,,,,,,,,,,,140.0,99.0,99.0,5,8*46,1769688698128
NMEA,$PSSGR,GSA,A,1,,,,,,,,,,,,,140.0,99.0,99.0,5,9*47,1769688698128
NMEA,$PSSGR,GSA,A,1,,,,,,,,,,,,,140.0,99.0,99.0,4,1*4E,1769688698128
NMEA,$PSSGR,GSA,A,1,,,,,,,,,,,,,140.0,99.0,99.0,4,5*4A,1769688698128
NMEA,$PSSGR,GSA,A,1,,,,,,,,,,,,,140.0,99.0,99.0,4,3*4C,1769688698128
OrientationDeg,1769688698139,519471706131332,91.72359249519855,-15.328850120287047,-1.4954007631089454
NMEA,$PSSGR,GSA,A,1,,,,,,,,,,,,,140.0,99.0,99.0,3,7*4F,1769688698129
NMEA,$PSSGR,GSA,A,1,,,,,,,,,,,,,140.0,99.0,99.0,3,1*49,1769688698129
NMEA,$PSSGR,GSA,A,1,,,,,,,,,,,,,140.0,99.0,99.0,6,1*4C,1769688698129
NMEA,$GPGSV,3,1,09,29,84,100,19,28,62,304,24,31,30,312,22,11,18,048,18*7E,1769688698129
NMEA,$GPGSV,3,3,09,28,,,19,11,,,,8*66,1769688698129
NMEA,$BDGSV,3,2,10,244,13,200,,224,12,299,,214,11,291,,242,11,265,*67,1769688698129
NMEA,$GPGSV,3,2,09,25,57,062,,26,20,285,,18,13,167,*42,1769688698129
NMEA,$BDGSV,3,3,10,226,,,,229,,,,5*7F,1769688698129
NMEA,$GLGSV,2,1,07,80,50,067,23,73,48,327,23,82,51,062,,83,45,153,*64,1769688698129
NMEA,$GLGSV,2,2,07,71,23,271,,72,15,323,,81,14,027,*5B,1769688698129
NMEA,$BDGSV,3,1,10,226,58,314,24,229,47,063,22,245,56,096,,235,53,170,*64,1769688698129
NMEA,$GAGSV,2,1,08,102,70,013,,108,41,233,,130,38,280,,107,31,299,*6E,1769688698129
NMEA,$GAGSV,2,2,08,136,31,112,,125,26,072,,111,23,057,,103,13,185,*6D,1769688698129
NMEA,$GPGSA,A,1,,,,,,,,,,,,,140.0,99.0,99.0*35,1769688698130
NMEA,$GPGSA,A,1,,,,,,,,,,,,,140.0,99.0,99.0,8*21,1769688698130
NMEA,$GPGSA,A,1,,,,,,,,,,,,,140.0,99.0,99.0,9*20,1769688698130
NMEA,$QZGSA,A,1,,,,,,,,,,,,,140.0,99.0,99.0*29,1769688698130
NMEA,$QZGSA,A,1,,,,,,,,,,,,,140.0,99.0,99.0,8*3D,1769688698130
OrientationDeg,1769688698147,519471714401107,91.72340808009096,-15.318584345964517,-1.498157491490986
NMEA,$QZGSA,A,1,,,,,,,,,,,,,140.0,99.0,99.0,9*3C,1769688698130
NMEA,$BDGSA,A,1,,,,,,,,,,,,,140.0,99.0,99.0*24,1769688698130
NMEA,$BDGSA,A,1,,,,,,,,,,,,,140.0,99.0,99.0,5*3D,1769688698130
NMEA,$BDGSA,A,1,,,,,,,,,,,,,140.0,99.0,99.0,3*3B,1769688698130
NMEA,$GAGSA,A,1,,,,,,,,,,,,,140.0,99.0,99.0*24,1769688698130
NMEA,$GAGSA,A,1,,,,,,,,,,,,,140.0,99.0,99.0,1*39,1769688698131
NMEA,$NCGSA,A,1,,,,,,,,,,,,,140.0,99.0,99.0,1*32,1769688698131
NMEA,$GNGSA,A,1,,,,,,,,,,,,,140.0,99.0,99.0*2B,1769688698131
NMEA,$GNGSA,A,1,,,,,,,,,,,,,140.0,99.0,99.0*2B,1769688698131
NMEA,$GPRMC,121137.24,V,,,,,,,290126,,,N*72,1769688698131
Raw,519471724,34105000000,,,-1453723881136080283,0.0,201694966.28310817,,,19,11,0.0,17,712886,111,16.594865798950195,-424.5083454496255,1.38177281623212,16,-2399.473158019492,340282346638528860000000000000000000000,1575420000,,,,1,,1,28.926002502441406,12.684865951538086,8.643837301404483,1.0,8.643837301404483,1.0,C,519471724668840
Raw,519471724,34105000000,,,-1453723881136080283,0.0,201694966.28310817,,,19,28,0.0,51,10245242,73,21.76369857788086,-988.5141404997225,1.147633129784798,16,-22307.16132228027,340282346638528860000000000000000000000,1575420000,,,,1,,1,28.926002502441406,17.85369873046875,8.963979953864575,1.0,8.963979953864575,1.0,C,519471724903296
Raw,519471725,34105000000,,,-1453723881136080283,0.0,201694966.28310817,,,19,29,0.0,17,211668,102,17.56585121154785,-698.8609754949662,1.3367593437217886,16,-12387.745452520838,340282346638528860000000000000000000000,1575420000,,,,1,,1,28.926002502441406,13.655851364135742,8.818460638680785,1.0,8.818460638680785,1.0,C,519471725021541
Raw,519471725,34105000000,,,-1453723881136080283,0.0,201694966.28310817,,,19,31,0.0,51,4774720,100,17.822832107543945,-1272.4437022507773,1.3238653912539071,16,-28744.293108471775,340282346638528860000000000000000000000,1575420000,,,,1,,1,28.926002502441406,13.912832260131836,13.242242571428047,1.0,13.242242571428047,1.0,C,519471725116634
Raw,519471725,34105000000,,,-1453723881136080283,0.0,201694966.28310817,,,19,11,0.0,16,19712883,1000000000,10.760000228881836,-424.1488436982229,299792458,16,-2825.9108321576737,340282346638528860000000000000000000000,1176450000,,,,0,,1,23.864200592041016,7.0,10.768559749319673,11.00692285594456,10.768559749319673,1.0,Q,519471725222713
Raw,519471725,34105000000,,,-1453723881136080283,0.0,201694966.28310817,,,19,28,0.0,65553,10245251,35,18.948047637939453,-989.0704343550879,1.2675044577404169,16,-34875.04757217493,340282346638528860000000000000000000000,1176450000,,,,2,,1,23.864200592041016,15.188047409057617,9.3132258331384,11.00692285594456,9.3132258331384,1.0,Q,519471725333268
Raw,519471725,34105000000,,,-1453723881136080283,0.0,201694966.28310817,,,19,9,0.0,49,2283333,137,22.53705596923828,-1086.7917218622028,1.113222895887147,16,-30249.724475771283,340282346638528860000000000000000000000,1600875000,,,,2,,3,47.6301155090332,18.627056121826172,5.47151994335567,2.0000000474974513,5.47151994335567,2.0000000474974513,C,519471725436499
Raw,519471725,34105000000,,,-1453723881136080283,0.0,201694966.28310817,,,19,16,0.0,17,567451,133,22.938934326171875,-490.061042697512,1.093403215178856,16,-11045.168584777497,340282346638528860000000000000000000000,1601437400,,,,2,,3,47.6301155090332,19.028934478759766,16.88022264269459,2.0000000474974513,16.88022264269459,2.0000000474974513,C,519471725539242
Raw,519471725,34105000000,,,-1453723881136080283,0.0,201694966.28310817,,,19,26,0.0,65587,5151653,33,22.914104461669922,-1002.7762852562578,1.094984587907676,16,-18109.780848580922,340282346638528860000000000000000000000,1561098000,,,,2,,5,47.18083190917969,19.004104614257812,16.01393634224663,4.8356409757302465,16.01393634224663,1.5000000237487257,I,519471725629167
Raw,519471725,34105000000,,,-1453723881136080283,0.0,201694966.28310817,,,19,29,0.0,65587,4319949,39,20.966691970825195,-456.23055777577474,1.182407753071132,16,-5363.68317752276,340282346638528860000000000000000000000,1561098000,,,,2,,5,47.18083190917969,17.056692123413086,11.5139364324444,4.8356409757302465,11.5139364324444,1.5000000237487257,I,519471725856218
Raw,519471726,34105000000,,,-1453723881136080283,0.0,201694966.28310817,,,19,26,0.0,48,4978007,1000000000,10.760000228881836,0.0025099189270589503,299792458,16,0.08560059709645093,340282346638528860000000000000000000000,1176450000,,,,1,,5,23.864200592041016,7.0,20.867446764054947,11.506922879693287,20.867446764054947,1.5000000237487257,P,519471726083594
Raw,519471726,34105000000,,,-1453723881136080283,0.0,201694966.28310817,,,19,29,0.0,48,4978010,1000000000,10.760000228881836,-0.5500094031891838,299792458,16,2.216791944210386,340282346638528860000000000000000000000,1176450000,,,,0,,5,23.864200592041016,7.0,20.459992840596094,11.506922879693287,20.459992840596094,1.5000000237487257,P,519471726287166
Status,1769688696241,9,0,1,29,1575420032,18.531733,100.0,84.0,0,1,1,14.621733
Status,1769688696241,9,1,1,28,1575420032,24.222193,304.0,62.0,0,1,1,20.312193
Status,1769688696241,9,2,1,28,1176450048,19.440538,304.0,62.0,0,1,1,15.680538
Status,1769688696241,9,3,5,26,1561097984,24.236162,314.0,58.0,0,1,1,20.326162
Status,1769688696241,9,4,3,16,1601437440,22.938934,67.0,50.0,0,1,1,19.028934
Status,1769688696241,9,5,3,9,1600875008,22.537056,327.0,48.0,0,1,1,18.627056
Status,1769688696241,9,6,5,29,1561097984,22.267036,63.0,47.0,0,1,1,18.357037
Status,1769688696241,9,7,1,31,1575420032,21.757393,312.0,30.0,0,1,1,17.847393
Status,1769688696241,9,8,1,11,1575420032,17.672606,48.0,18.0,0,1,1,13.762605
OrientationDeg,1769688698155,519471722689710,91.72393400465705,-15.308733505634066,-1.500884764682231
OrientationDeg,1769688698163,519471730960573,91.7253546840044,-15.29928052382277,-1.504468052675549
OrientationDeg,1769688698172,519471739228335,91.72725347659366,-15.290539589232445,-1.5090214409744203
OrientationDeg,1769688698180,519471747499910,91.72890638237283,-15.282403126383668,-1.5130151806481738
OrientationDeg,1769688698188,519471755770040,91.73197996749934,-15.274850644708925,-1.5160864178971523
OrientationDeg,1769688698197,519471764042257,91.73394023179111,-15.268076804599566,-1.5189146498220665
OrientationDeg,1769688698205,519471772314117,91.73589366589374,-15.26214478530541,-1.5217029678290184
OrientationDeg,1769688698213,519471780583119,91.73828423210324,-15.256847973604065,-1.525096397907751
OrientationDeg,1769688698221,519471788851836,91.74026498696253,-15.251481152463727,-1.5280642218238274
OrientationDeg,1769688698230,519471797125994,91.74219793049764,-15.246227029444695,-1.5301346229159876
OrientationDeg,1769688698238,519471805384376,91.74265555317209,-15.240476010163544,-1.531900653703259
OrientationDeg,1769688698246,519471813680183,91.74194521349835,-15.234426170106206,-1.5353274876759013
OrientationDeg,1769688698254,519471821938198,91.74040159074593,-15.227418396017772,-1.540172653118379
OrientationDeg,1769688698263,519471830211269,91.73880332648014,-15.219158989763935,-1.543726165755784
OrientationDeg,1769688698271,519471838466995,91.73789491132055,-15.209595017378625,-1.5460015792447501
OrientationDeg,1769688698279,519471846750930,91.73635128856813,-15.199383884569455,-1.5470055103310363
OrientationDeg,1769688698288,519471855022475,91.73548385454353,-15.187898921480079,-1.5484965192825089
OrientationDeg,1769688698296,519471863290866,91.73402902425033,-15.175870958351686,-1.5495561590992128
OrientationDeg,1769688698304,519471871564110,91.73316159022573,-15.16411278769551,-1.550508330158195
OrientationDeg,1769688698312,519471879838646,91.73684306218837,-15.15261928686967,-1.5526109612055012
OrientationDeg,1769688698321,519471888106466,91.73708894899846,-15.141953946480696,-1.5542876659250335
OrientationDeg,1769688698329,519471896378723,91.7397322322073,-15.132781002425368,-1.556001403076472
OrientationDeg,1769688698337,519471904648254,91.74078408133948,-15.125295115095033,-1.5580976308214312
OrientationDeg,1769688698345,519471912918884,91.74267604373955,-15.11994366188033,-1.559381492941982
OrientationDeg,1769688698354,519471921207365,91.74449970424797,-15.11609655783032,-1.5609610809092533
OrientationDeg,1769688698362,519471929479093,91.74601600624368,-15.11380502936378,-1.562377811553502
OrientationDeg,1769688698370,519471937729785,91.74766891202285,-15.111820859409892,-1.5629267880080417
OrientationDeg,1769688698378,519471946001054,91.74894615739765,-15.110048425320274,-1.562369593982157
OrientationDeg,1769688698387,519471954281074,91.74964966688214,-15.10748881192881,-1.563407142405764
OrientationDeg,1769688698395,519471962560390,91.75137770474214,-15.104611594740943,-1.5662432717369061
OrientationDeg,1769688698403,519471970837112,91.75120695001289,-15.100947198251232,-1.5683624446486084
OrientationDeg,1769688698412,519471979080845,91.75060589336596,-15.095807480900797,-1.5685182583390493
OrientationDeg,1769688698420,519471987354964,91.74848170453407,-15.088400140745918,-1.5678877465012926
OrientationDeg,1769688698428,519471995630324,91.75037366693414,-15.079175970271816,-1.567195015909065
OrientationDeg,1769688698436,519472003900240,91.74772355353622,-15.068717243105233,-1.5669845607052642
OrientationDeg,1769688698445,519472012171511,91.74536713827251,-15.056151402579703,-1.5680966008795068
OrientationDeg,1769688698453,519472020442517,91.7436459306017,-15.04190021287647,-1.5696066062946086
OrientationDeg,1769688698461,519472028714773,91.74221159087597,-15.026730362729873,-1.572035272153077
OrientationDeg,1769688698469,519472036984385,91.74357079852086,-15.0119190975147,-1.5746245541787465
OrientationDeg,1769688698477,519472045255280,91.74421283630284,-14.997700351210026,-1.575976931634409
OrientationDeg,1769688698486,519472053525511,91.74482072313896,-14.984265369112611,-1.5767957005611644
OrientationDeg,1769688698494,519472061795368,91.74561302508266,-14.97162439650621,-1.5779983474636154
OrientationDeg,1769688698503,519472070069487,91.74533981751586,-14.960224810781458,-1.579628094632604
OrientationDeg,1769688698511,519472078333310,91.74595453454117,-14.950613027071958,-1.5805981949381573
OrientationDeg,1769688698519,519472086610897,91.74557204394762,-14.942869300100456,-1.5820450211034365
OrientationDeg,1769688698527,519472094896288,91.74632336475634,-14.936068139234417,-1.5835616432642965
OrientationDeg,1769688698536,519472103162328,91.74587940246028,-14.930475921851468,-1.5852811433878473
OrientationDeg,1769688698544,519472111436802,91.7457564590552,-14.924557562935652,-1.586413140521071
OrientationDeg,1769688698552,519472119695113,91.74585208170362,-14.918272081351947,-1.5878428912134253
OrientationDeg,1769688698559,519472127962904,91.7457632892444,-14.910777656285152,-1.5897050782576057
OrientationDeg,1769688698569,519472136233278,91.746309704378,-14.902316759450798,-1.5908843531064907
OrientationDeg,1769688698577,519472144507479,91.746350685513,-14.892189296458962,-1.5920181645087128
OrientationDeg,1769688698585,519472152781699,91.74581110056863,-14.881144880571052,-1.5938294452992356
OrientationDeg,1769688698594,519472161050853,91.74802408185968,-14.869554049549539,-1.597807069995416
OrientationDeg,1769688698602,519472169320404,91.74680830818738,-14.857488520380711,-1.6028252313229656
OrientationDeg,1769688698609,519472177578440,91.74568815716356,-14.846080396919499,-1.6062869632933985
OrientationDeg,1769688698618,519472185862374,91.74499147786821,-14.835047933862635,-1.6084187293663827
OrientationDeg,1769688698627,519472194134245,91.74573596848774,-14.825429319963964,-1.6105692784595849
OrientationDeg,1769688698635,519472202404844,91.74955404423378,-14.816720828772198,-1.6123968876710921
OrientationDeg,1769688698643,519472210675688,91.75329698789892,-14.809482535799278,-1.6123929389679783
OrientationDeg,1769688698651,519472218959947,91.7582693656147,-14.802920431554188,-1.612579061622861
OrientationDeg,1769688698660,519472227235978,91.7635286112756,-14.796805704699734,-1.6117469524828831
OrientationDeg,1769688698668,519472235501593,91.76930012112427,-14.791978468503826,-1.6109306381553608
OrientationDeg,1769688698676,519472243772842,91.77490087624369,-14.787530307806856,-1.6113674500971242
OrientationDeg,1769688698685,519472252045841,91.77932683882585,-14.78342536411568,-1.6131833199209957
OrientationDeg,1769688698693,519472260316400,91.78255751830329,-14.779487760059165,-1.6151215995413983
OrientationDeg,1769688698701,519472268584344,91.78356155611124,-14.775276948435854,-1.6159846579760528
OrientationDeg,1769688698709,519472276840619,91.78371865046216,-14.770681938671727,-1.6166796297241017
OrientationDeg,1769688698718,519472285128735,91.78265314095165,-14.764999221282277,-1.6178638137714527
OrientationDeg,1769688698726,519472293395519,91.7810275559292,-14.757906069829218,-1.618375330907263
OrientationDeg,1769688698734,519472301640035,91.78007132944538,-14.748987550320475,-1.6178015950169822
OrientationDeg,1769688698742,519472309918365,91.77794714061349,-14.73890960620012,-1.6168701279689215
OrientationDeg,1769688698751,519472318195485,91.77599370651092,-14.727791765778631,-1.6168002252516347
OrientationDeg,1769688698759,519472326467100,91.77421102713754,-14.715917481906565,-1.6178156822821452
OrientationDeg,1769688698767,519472334743936,91.77293378176273,-14.704039782939914,-1.6207171252972254
OrientationDeg,1769688698775,519472342997342,91.77202536660309,-14.692909989687378,-1.6241142906356605
OrientationDeg,1769688698784,519472351282681,91.77255129116918,-14.682676658763405,-1.6258067901676485
OrientationDeg,1769688698792,519472359555203,91.77449789508262,-14.6738179034099,-1.6265065643924574
OrientationDeg,1769688698800,519472367824672,91.7761712914293,-14.666279082113498,-1.6260938715562008
OrientationDeg,1769688698809,519472376095443,91.77828181988286,-14.659993600529793,-1.6248573938730169
OrientationDeg,1769688698817,519472384354141,91.7807543483624,-14.654345034086193,-1.622382517515945
OrientationDeg,1769688698825,519472392638808,91.78385525424557,-14.648730618588441,-1.6182482253556774
OrientationDeg,1769688698833,519472400921573,91.78842465080032,-14.642320486052386,-1.6131764897318257
OrientationDeg,1769688698841,519472409196933,91.79256374543735,-14.635654221422453,-1.6089789116000297
OrientationDeg,1769688698850,519472417445091,91.79866310436614,-14.627492145364288,-1.605609814070215
OrientationDeg,1769688698858,519472425733451,91.80242653859887,-14.617620814466326,-1.6022478668946878
OrientationDeg,1769688698867,519472434006369,91.804161406648,-14.60618366270114,-1.598102475677019
OrientationDeg,1769688698875,519472442281006,91.8022284631129,-14.592506208888189,-1.5940156746758243
OrientationDeg,1769688698883,519472450554261,91.79606080229235,-14.574664047228824,-1.5899147864094663
OrientationDeg,1769688698891,519472458803914,91.78917597160898,-14.549925102055038,-1.584800255381596
OrientationDeg,1769688698900,519472467090626,91.77802227269439,-14.517650750679435,-1.580674074070968
OrientationDeg,1769688698908,519472475344643,91.76594649824176,-14.477617304406698,-1.5765772412294297
OrientationDeg,1769688698916,519472483615130,91.75454691251707,-14.430712687828928,-1.5710435073412499
OrientationDeg,1769688698923,519472491899543,91.7447182703014,-14.376550995258018,-1.563906813432233
OrientationDeg,1769688698933,519472500157660,91.73736898675446,-14.314824014407675,-1.555604931939494
OrientationDeg,1769688698940,519472508431737,91.73244442036287,-14.24517999053564,-1.545721861653897
OrientationDeg,1769688698948,519472516706161,91.72988992961331,-14.169018258648121,-1.537252533804787
OrientationDeg,1769688698957,519472524974797,91.7288175899136,-14.087168686729273,-1.5308871176634524
OrientationDeg,1769688698966,519472533242751,91.72965770318149,-14.00115867583224,-1.526510994117884
OrientationDeg,1769688698974,519472541516188,91.73265615622716,-13.913421480848841,-1.5247461372693762
OrientationDeg,1769688698982,519472549789014,91.73828423210324,-13.825861017010217,-1.5239011148029988
OrientationDeg,1769688698991,519472558058677,91.74748449691526,-13.742292798741465,-1.5227913157845776
OrientationDeg,1769688698999,519472566329245,91.75958759212449,-13.666249741390773,-1.5203594482749356
OrientationDeg,1769688699007,519472574613170,91.77900581993487,-13.601644689578917,-1.5176418867589168
OrientationDeg,1769688699015,519472582888245,91.79358144362368,-13.551808214299918,-1.5187647058254434
OrientationDeg,1769688699024,519472591160603,91.80806827485327,-13.518958419486742,-1.5254456980507738
OrientationDeg,1769688699032,519472599404479,91.82657125731481,-13.50518790434635,-1.5351267441473264
OrientationDeg,1769688699040,519472607680978,91.84136544705706,-13.510357503774403,-1.544643652260387
OrientationDeg,1769688699048,519472615951382,91.86167842964869,-13.53312593937264,-1.5503791968941996
OrientationDeg,1769688699057,519472624227282,91.87412986450562,-13.572087899719332,-1.5531406210312946
OrientationDeg,1769688699065,519472632497331,91.88451175204403,-13.623723276070983,-1.5573417209793812
OrientationDeg,1769688699073,519472640767950,91.89389643196364,-13.683721365287667,-1.565392272855005
OrientationDeg,1769688699082,519472649039261,91.90007092297333,-13.747604124594796,-1.5761720189125774
OrientationDeg,1769688699090,519472657306920,91.90664839514409,-13.811003648018147,-1.5871185709962865
OrientationDeg,1769688699098,519472665581008,91.91309609372058,-13.870269199446348,-1.596117985558013
OrientationDeg,1769688699106,519472673852177,91.9205956414292,-13.922418547533042,-1.6033236216889648
OrientationDeg,1769688699114,519472682123355,91.92975492510618,-13.964685465664372,-1.6098040838291319
OrientationDeg,1769688699123,519472690395348,91.93838828421713,-13.996028349991915,-1.6134343293729936
NMEA,$GPGGA,121138.24,,,,,0,00,999.9,,M,,M,,*68,1769688699127
NMEA,$PGLOR,12,STA,121138.24,-0.001,0.202,-2351,98,9999,0,P,D,L,1,C,2,S,00000000,0,3,R,00000000,TPEF,34,35105,LC,,,DR,0*00,1769688699127
NMEA,$PGLOR,1,UNC,121138.24,201691.453,9999.0,9999.0,0.00,0.00,10588.6,10588.6,90.0*25,1769688699128
OrientationDeg,1769688699130,519472698665356,91.94653669989691,-14.015485851389988,-1.6131546117821405
NMEA,$PGLOR,2,SAT,5,1,G29,14,23,G28,18,201A3,B26,,20023,R16,19,23,R09,20,23,B29,,20023*70,1769688699128
NMEA,$PGLOR,2,SAT,5,2,G31,16,23,G11,19,20020,E02,,20,G25,,20,B45,,20,B35,,20*09,1769688699128
NMEA,$PGLOR,2,SAT,5,3,R18,,20,R19,,20,E08,,20,E30,,20,E07,,20,E36,,20*3C,1769688699128
NMEA,$PGLOR,2,SAT,5,4,E25,,20,R07,,20,E11,,20,G26,,20,R08,,20,R17,,20*2C,1769688699128
NMEA,$PGLOR,2,SAT,5,5,G18,,20,B44,,20,E03,,20,B24,,20,B14,,20,B42,,20*3F,1769688699128
NMEA,$PGLOR,2,SVC,GPS,0,2,1,07,011,FFTU,FFNU,028,FFTU,FFNU,029,FFTU,FFNU,031,FFTU,FFNU*6D,1769688699128
NMEA,$PGLOR,2,SVC,GPS,0,2,2,07,018,CLIN,CLIN,025,CLIN,CLIN,026,CLIN,CLIN*7B,1769688699128
NMEA,$PGLOR,2,SVC,GPS,2,1,1,02,011,VETM,VETM,028,VETM,VETM*60,1769688699128
NMEA,$PGLOR,2,SVC,GLO,0,2,1,07,056,FFTU,FFNU,057,FFTU,FFNU,058,CLIN,CLIN,062,CLIN,CLIN*66,1769688699128
NMEA,$PGLOR,2,SVC,GLO,0,2,2,07,063,CLIN,CLIN,064,CLIN,CLIN,065,CLIN,CLIN*75,1769688699128
OrientationDeg,1769688699139,519472706951295,91.95269070033913,-14.0237170831135,-1.6126422408726837
NMEA,$PGLOR,2,SVC,BDS,0,2,1,08,101,FFTU,FFNU,104,FFTU,FFNU,110,CLIN,CLIN,120,CLIN,CLIN*76,1769688699128
NMEA,$PGLOR,2,SVC,BDS,0,2,2,08,089,CLIN,CLIN,099,CLIN,CLIN,117,CLIN,CLIN,119,CLIN,CLIN*7C,1769688699129
NMEA,$PGLOR,2,SVC,BDS,2,1,1,02,101,VETM,VETM,104,VETM,VETM*7E,1769688699129
NMEA,$PGLOR,2,SVC,GAL,0,2,1,08,140,CLIN,CLIN,145,CLIN,CLIN,146,CLIN,CLIN,168,CLIN,CLIN*66,1769688699129
NMEA,$PGLOR,2,SVC,GAL,0,2,2,08,141,CLIN,CLIN,149,CLIN,CLIN,163,CLIN,CLIN,174,CLIN,CLIN*62,1769688699129
NMEA,$PGLOR,2,SIO,TxERR,0,RxERR,0,TxCNT,308,RxCNT,4608,MLFRMPKT,0,DTMS,1002,DTIN,17,30,DTOUT,22,972,HATMD,27*1B,1769688699129
OrientationDeg,1769688699148,519472715221161,91.9571781346238,-14.021263337654172,-1.613075637719862
NMEA,$PGLOR,1,LSQ,121138.24,,,,,,,,,,,,,,,,00,,*35,1769688699139
NMEA,$PGLOR,6,PWR,mA,40.5,RFTm,1000,OscTm,1000,MeasTm,1000,UTC,121138.24,GNSSmA,39.3,CPUTm,437,COPTm,40,COPMargTm,170,S*00,1769688699139
NMEA,$PGLOR,2,HLA,121138.24,L,,Al,,A,,H,,,M,,Ac,0,Gr,0,S,,,Sx,,,T,,Tr,,Mn,,Ap,,Ta,0,,,Aa,1,Ga,1,*14,1769688699129
NMEA,$PGLOR,3,AGC,G,28.2,R,48.2,B,48.9,E5A,26.3,AL1,21.6,AL5,24.0,LTE,,PM1,,PM5,*0C,1769688699139
NMEA,$PSSGR,GSA,A,1,,,,,,,,,,,,,140.0,99.0,99.0,1,1*4B,1769688699139
NMEA,$PSSGR,GSA,A,1,,,,,,,,,,,,,140.0,99.0,99.0,1,8*42,1769688699139
NMEA,$PSSGR,GSA,A,1,,,,,,,,,,,,,140.0,99.0,99.0,1,9*43,1769688699139
OrientationDeg,1769688699156,519472723493438,91.95944575742828,-14.01024453497565,-1.6147591726285646
NMEA,$PSSGR,GSA,A,1,,,,,,,,,,,,,140.0,99.0,99.0,2,1*48,1769688699139
NMEA,$PSSGR,GSA,A,1,,,,,,,,,,,,,140.0,99.0,99.0,5,1*4F,1769688699139
NMEA,$PSSGR,GSA,A,1,,,,,,,,,,,,,140.0,99.0,99.0,5,8*46,1769688699139
NMEA,$PSSGR,GSA,A,1,,,,,,,,,,,,,140.0,99.0,99.0,5,9*47,1769688699139
NMEA,$PSSGR,GSA,A,1,,,,,,,,,,,,,140.0,99.0,99.0,4,1*4E,1769688699139
NMEA,$PSSGR,GSA,A,1,,,,,,,,,,,,,140.0,99.0,99.0,4,5*4A,1769688699139
NMEA,$PSSGR,GSA,A,1,,,,,,,,,,,,,140.0,99.0,99.0,4,3*4C,1769688699139
OrientationDeg,1769688699164,519472731766346,91.95969847442757,-13.993286029040155,-1.6178822766265528
NMEA,$PSSGR,GSA,A,1,,,,,,,,,,,,,140.0,99.0,99.0,3,7*4F,1769688699139
NMEA,$PSSGR,GSA,A,1,,,,,,,,,,,,,140.0,99.0,99.0,3,1*49,1769688699139
OrientationDeg,1769688699173,519472740033639,91.95906326683473,-13.972928650218932,-1.6207448729407286
NMEA,$PSSGR,GSA,A,1,,,,,,,,,,,,,140.0,99.0,99.0,6,1*4C,1769688699139
NMEA,$GPGSV,3,1,09,29,84,100,18,28,62,304,24,31,30,312,22,11,18,048,23*77,1769688699140
OrientationDeg,1769688699181,519472748302906,91.95637217230177,-13.951430629806316,-1.6228770659005363
NMEA,$GPGSV,3,2,09,25,57,062,,26,20,285,,18,13,167,*42,1769688699140
NMEA,$GPGSV,3,3,09,28,,,21,11,,,13,8*6F,1769688699140
NMEA,$GLGSV,2,2,07,71,23,271,,72,15,323,,81,14,027,*5B,1769688699140
NMEA,$BDGSV,3,1,10,226,58,314,24,229,47,063,22,245,56,096,,235,53,170,*64,1769688699140
OrientationDeg,1769688699189,519472756577339,91.95502662503526,-13.931984227465644,-1.6250844976629197
NMEA,$BDGSV,3,2,10,244,13,200,,224,12,299,,214,11,291,,242,11,265,*67,1769688699140
NMEA,$GLGSV,2,1,07,80,50,067,23,73,48,327,23,82,51,062,,83,45,153,*64,1769688699140
NMEA,$BDGSV,3,3,10,226,,,,229,,,,5*7F,1769688699140
NMEA,$GAGSV,2,1,08,102,70,014,,108,41,233,,130,38,280,,107,31,299,*69,1769688699140
NMEA,$GAGSV,2,2,08,136,31,112,,125,26,072,,111,23,057,,103,13,185,*6D,1769688699140
NMEA,$GPGSA,A,1,,,,,,,,,,,,,140.0,99.0,99.0*35,1769688699140
NMEA,$GPGSA,A,1,,,,,,,,,,,,,140.0,99.0,99.0,8*21,1769688699140
NMEA,$GPGSA,A,1,,,,,,,,,,,,,140.0,99.0,99.0,9*20,1769688699140
NMEA,$QZGSA,A,1,,,,,,,,,,,,,140.0,99.0,99.0*29,1769688699140
NMEA,$QZGSA,A,1,,,,,,,,,,,,,140.0,99.0,99.0,8*3D,1769688699140
NMEA,$QZGSA,A,1,,,,,,,,,,,,,140.0,99.0,99.0,9*3C,1769688699140
NMEA,$BDGSA,A,1,,,,,,,,,,,,,140.0,99.0,99.0*24,1769688699140
OrientationDeg,1769688699196,519472764845110,91.95157737950439,-13.915453462126921,-1.6268483940160756
OrientationDeg,1769688699206,519472773123236,91.94855160570205,-13.903284626346897,-1.6275657773223384
NMEA,$BDGSA,A,1,,,,,,,,,,,,,140.0,99.0,99.0,5*3D,1769688699140
NMEA,$BDGSA,A,1,,,,,,,,,,,,,140.0,99.0,99.0,3*3B,1769688699140
NMEA,$GAGSA,A,1,,,,,,,,,,,,,140.0,99.0,99.0*24,1769688699140
NMEA,$GAGSA,A,1,,,,,,,,,,,,,140.0,99.0,99.0,1*39,1769688699140
NMEA,$NCGSA,A,1,,,,,,,,,,,,,140.0,99.0,99.0,1*32,1769688699140
NMEA,$GNGSA,A,1,,,,,,,,,,,,,140.0,99.0,99.0*2B,1769688699140
NMEA,$GPRMC,121138.24,V,,,,,,,290126,,,N*7D,1769688699140
NMEA,$GNGSA,A,1,,,,,,,,,,,,,140.0,99.0,99.0*2B,1769688699140
Raw,519472790,35105000000,,,-1453723881136082637,0.0,201695069.28310817,,,19,11,0.0,16,19714253,1000000000,22.533544540405273,-424.8060216248957,299792458,16,-2825.1077545403477,340282346638528860000000000000000000000,1575420000,,,,1,,1,28.17200469970703,18.623544692993164,8.643837301404483,1.0,8.643837301404483,1.0,C,519472790354590
Raw,519472790,35105000000,,,-1453723881136082637,0.0,201695069.28310817,,,19,28,0.0,51,10248544,71,22.08123016357422,-988.6579003013358,1.1333548437898688,16,-23296.081017290875,340282346638528860000000000000000000000,1575420000,,,,1,,1,28.17200469970703,18.17123031616211,8.963979953864575,1.0,8.963979953864575,1.0,C,519472790671322
Raw,519472790,35105000000,,,-1453723881136082637,0.0,201695069.28310817,,,19,29,0.0,17,214016,100,17.899085998535156,-698.8932174988367,1.321774645561586,16,-13086.660613714641,340282346638528860000000000000000000000,1575420000,,,,1,,1,28.17200469970703,13.989086151123047,8.818460638680785,1.0,8.818460638680785,1.0,C,519472790796078
Raw,519472790,35105000000,,,-1453723881136082637,0.0,201695069.28310817,,,19,31,0.0,51,4778961,85,19.887374877929688,-1272.507368279562,1.2310262441663253,16,-30015.69559071543,340282346638528860000000000000000000000,1575420000,,,,1,,1,28.17200469970703,15.977374076843262,13.242242571428047,1.0,13.242242571428047,1.0,C,519472790920630
Raw,519472791,35105000000,,,-1453723881136082637,0.0,201695069.28310817,,,19,11,0.0,16,19714304,1000000000,13.334989547729492,-424.1050818240476,299792458,16,-3250.315843133272,340282346638528860000000000000000000000,1176450000,,,,0,,1,22.718292236328125,9.574989318847656,10.768559749319673,11.00692285594456,10.768559749319673,1.0,Q,519472791043270
Raw,519472791,35105000000,,,-1453723881136082637,0.0,201695069.28310817,,,19,28,0.0,65553,10248525,39,21.36988067626953,-988.6722149330753,1.15859796195965,16,-35862.40718201227,340282346638528860000000000000000000000,1176450000,,,,0,,1,22.718292236328125,17.609880447387695,9.3132258331384,11.00692285594456,9.3132258331384,1.0,Q,519472791166480
